"Comune";"Provincia";"Regione";"Nome";"Anno inserimento";"Data e ora inserimento";"Identificatore in OpenStreetMap";"Longitudine";"Latitudine";
"ALTRO";"ALTRO";"ALTRO";"Albonago";"2014";"2014-11-11T16:22:37Z";"984003073";"8.9750146";"46.0085186";
"ALTRO";"ALTRO";"ALTRO";"Camedo";"2014";"2014-05-04T21:49:40Z";"2836876118";"8.610916";"46.1547927";
"ALTRO";"ALTRO";"ALTRO";"Campocologno";"2013";"2013-03-16T19:55:46Z";"299357596";"10.1416942";"46.2334804999999";
"ALTRO";"ALTRO";"ALTRO";"Chiasso";"2015";"2015-01-05T18:37:49Z";"3092179807";"9.0318628";"45.8321292999999";
"ALTRO";"ALTRO";"ALTRO";"Kreplje";"2013";"2013-11-06T22:41:25Z";"1867264786";"13.8273943999999";"45.7421513";
"ALTRO";"ALTRO";"ALTRO";"Le Nid d'Aigle";"2015";"2015-07-17T14:59:38Z";"281398821";"6.7985796";"45.8584110999999";
"ALTRO";"ALTRO";"ALTRO";"Monte Brè Vetta";"2015";"2015-09-01T10:59:34Z";"299270349";"8.98608849999999";"46.0092202";
"ALTRO";"ALTRO";"ALTRO";"Nova Gorica";"2014";"2014-04-09T19:27:08Z";"1864393414";"13.6353357";"45.9552192";
"ALTRO";"ALTRO";"ALTRO";"Ponte Tresa";"2016";"2016-01-09T18:09:01Z";"273490214";"8.8603547";"45.9699324999999";
"ALTRO";"ALTRO";"ALTRO";"Se?ana";"2012";"2012-12-31T15:11:43Z";"275403778";"13.8633664";"45.7040708999999";
"ALTRO";"ALTRO";"ALTRO";"Sillian";"2014";"2014-08-16T17:02:50Z";"3020677273";"12.4250865";"46.7456172999999";
"ALTRO";"ALTRO";"ALTRO";"Solkan";"2015";"2015-04-11T12:40:30Z";"1867261625";"13.6462534";"45.9726247999999";
"ALTRO";"ALTRO";"ALTRO";"Stabio";"2014";"2014-11-30T09:41:56Z";"3114699244";"8.9444411";"45.8498651";
"ALTRO";"ALTRO";"ALTRO";"Thörl-Maglern";"2013";"2013-10-31T16:08:57Z";"1372327605";"13.6483556";"46.540334";
"ALTRO";"ALTRO";"ALTRO";"Utoring";"2015";"2015-02-22T18:41:55Z";"984003281";"8.981183";"46.0113246";
"ALTRO";"ALTRO";"ALTRO";"Vetta";"2014";"2014-09-17T03:03:42Z";"288503221";"9.0188658";"45.9280213999999";
"ALTRO";"ALTRO";"ALTRO";"Vrtojba";"2014";"2014-04-28T14:32:44Z";"2822762545";"13.6362147";"45.9250471";
"Airasca";"TORINO";"Piemonte";"Airasca";"2014";"2014-10-26T22:26:00Z";"474381077";"7.4832665";"44.9280461999999";
"Alpignano";"TORINO";"Piemonte";"Alpignano";"2013";"2013-05-04T21:56:45Z";"1588214497";"7.5238245";"45.0912816";
"Avigliana";"TORINO";"Piemonte";"Avigliana";"2015";"2015-05-11T21:25:04Z";"1598967748";"7.4009405";"45.0853893";
"Balangero";"TORINO";"Piemonte";"Balangero";"2011";"2011-08-14T22:12:24Z";"822596562";"7.5194836";"45.2656459999999";
"Bardonecchia";"TORINO";"Piemonte";"Bardonecchia";"2015";"2015-05-11T21:25:04Z";"2043486315";"6.7097395";"45.0764633";
"Borgaro Torinese";"TORINO";"Piemonte";"Borgaro Torinese";"2015";"2015-05-11T21:25:02Z";"3511147159";"7.6487388";"45.1532959";
"Borgofranco d'Ivrea";"TORINO";"Piemonte";"Borgofranco d'Ivrea";"2012";"2012-11-20T09:13:02Z";"1640450736";"7.8546427";"45.5147370999999";
"Borgone Susa";"TORINO";"Piemonte";"Borgone di Susa";"2015";"2015-05-11T21:25:05Z";"1598967749";"7.2360913";"45.1233785";
"Bosconero";"TORINO";"Piemonte";"Bosconero";"2011";"2011-08-12T13:48:27Z";"1262195587";"7.7618626";"45.2675133999999";
"Brandizzo";"TORINO";"Piemonte";"Brandizzo";"2014";"2014-02-06T10:42:06Z";"2043486321";"7.8411549";"45.1787318";
"Bruzolo";"TORINO";"Piemonte";"Bruzolo";"2015";"2015-05-11T21:25:05Z";"1598967750";"7.2010571";"45.1312691999999";
"Bussoleno";"TORINO";"Piemonte";"Bussoleno";"2015";"2015-05-11T21:25:05Z";"1446542028";"7.1448124";"45.1396163";
"Caluso";"TORINO";"Piemonte";"Caluso";"2012";"2012-11-20T09:12:59Z";"1003779384";"7.9025604";"45.3031446999999";
"Caluso";"TORINO";"Piemonte";"Rodallo";"2012";"2012-11-20T09:12:59Z";"1640251816";"7.8780343";"45.2787068";
"Cambiano";"TORINO";"Piemonte";"Cambiano-Santena";"2015";"2015-04-27T17:08:03Z";"374563670";"7.7731065";"44.9664372";
"Candia Canavese";"TORINO";"Piemonte";"Candia Canavese";"2012";"2012-11-20T09:13:00Z";"1003779346";"7.891791";"45.3300205";
"Candiolo";"TORINO";"Piemonte";"Candiolo";"2015";"2015-06-04T21:14:09Z";"3573141093";"7.5990181";"44.9611065";
"Carmagnola";"TORINO";"Piemonte";"Carmagnola";"2013";"2013-05-04T21:56:48Z";"2043486335";"7.7278083";"44.8470455";
"Caselle Torinese";"TORINO";"Piemonte";"Caselle Aeroporto";"2015";"2015-05-11T21:25:05Z";"456786902";"7.6416415";"45.1918384";
"Caselle Torinese";"TORINO";"Piemonte";"Caselle Torinese";"2015";"2015-05-11T21:25:05Z";"456786908";"7.6445033";"45.1760827";
"Ceres";"TORINO";"Piemonte";"Ceres";"2011";"2011-08-14T22:12:22Z";"935587861";"7.3899363";"45.3112009999999";
"Chieri";"TORINO";"Piemonte";"Chieri";"2016";"2016-02-09T16:22:10Z";"2043486342";"7.823309";"45.0062426";
"Chieri";"TORINO";"Piemonte";"Pessione";"2015";"2015-06-04T21:14:12Z";"2939322399";"7.841336";"44.9651263";
"Chiomonte";"TORINO";"Piemonte";"Chiomonte";"2015";"2015-09-28T08:21:36Z";"1343615232";"6.9886384";"45.1200644999999";
"Chiusa di San Michele";"TORINO";"Piemonte";"Condove - Chiusa San Michele";"2015";"2015-09-27T21:49:28Z";"1598967751";"7.3169973";"45.106856";
"Chivasso";"TORINO";"Piemonte";"Chivasso";"2014";"2014-02-06T10:42:07Z";"249451743";"7.8899206";"45.1933871999999";
"Collegno";"TORINO";"Piemonte";"Collegno";"2015";"2015-04-27T17:08:03Z";"1597711071";"7.5741956";"45.0788692";
"Collegno";"TORINO";"Piemonte";"Fermi";"2014";"2014-12-26T10:24:47Z";"1481306407";"7.5911782";"45.0760003999999";
"Collegno";"TORINO";"Piemonte";"Paradiso";"2014";"2014-12-26T10:24:50Z";"332648897";"7.6023968";"45.0738513";
"Cuorgne'";"TORINO";"Piemonte";"Cuorgné";"2012";"2012-12-01T09:36:13Z";"1782576468";"7.6548823";"45.3887617999999";
"Exilles";"TORINO";"Piemonte";"Exilles";"2015";"2015-09-28T08:21:36Z";"2043537372";"6.9274789";"45.0898791999999";
"Favria";"TORINO";"Piemonte";"Favria-Oglianico";"2012";"2012-12-01T09:36:13Z";"1782576349";"7.6901782";"45.3368003";
"Feletto";"TORINO";"Piemonte";"Feletto";"2012";"2012-11-26T22:04:39Z";"1262204623";"7.7436586";"45.3037585";
"Germagnano";"TORINO";"Piemonte";"Funghera";"2011";"2011-10-09T14:22:01Z";"823489175";"7.4526426";"45.2706263";
"Germagnano";"TORINO";"Piemonte";"Germagnano";"2014";"2014-08-30T14:23:13Z";"935387092";"7.4698271";"45.2623147999999";
"Grugliasco";"TORINO";"Piemonte";"Grugliasco";"2014";"2014-12-26T11:02:42Z";"1588214515";"7.5993438";"45.0681366";
"Ivrea";"TORINO";"Piemonte";"Ivrea";"2014";"2014-05-29T23:08:16Z";"376298278";"7.8763444";"45.4614624";
"Lanzo Torinese";"TORINO";"Piemonte";"Lanzo Torinese";"2015";"2015-09-25T01:23:27Z";"822930555";"7.480749";"45.2729028999999";
"Mathi";"TORINO";"Piemonte";"Mathi";"2011";"2011-08-14T22:12:24Z";"935587876";"7.5409314";"45.2555343";
"Meana di Susa";"TORINO";"Piemonte";"Meana";"2015";"2015-05-11T21:25:07Z";"1643041387";"7.0598121";"45.1246434999999";
"Mercenasco";"TORINO";"Piemonte";"Mercenasco";"2014";"2014-06-03T15:08:14Z";"1630413448";"7.8864059";"45.353428";
"Mezzenile";"TORINO";"Piemonte";"Mezzenile";"2015";"2015-10-20T12:07:20Z";"935587856";"7.3990126";"45.2956952999999";
"Moncalieri";"TORINO";"Piemonte";"Moncalieri";"2015";"2015-04-27T17:08:03Z";"2043486356";"7.6782643";"44.9982199";
"Montalto Dora";"TORINO";"Piemonte";"Montalto Dora";"2014";"2014-09-01T14:53:31Z";"2022745692";"7.8589669";"45.4902495999999";
"Montanaro";"TORINO";"Piemonte";"Montanaro";"2012";"2012-11-20T09:12:58Z";"1640239997";"7.8583792";"45.2327103";
"Monteu da Po";"TORINO";"Piemonte";"Monteu da Po";"2013";"2013-10-09T10:27:35Z";"2489231675";"8.0192282";"45.1584562999999";
"Nichelino";"TORINO";"Piemonte";"Nichelino";"2015";"2015-04-27T17:08:04Z";"452446333";"7.6420916";"44.9913376";
"Nole";"TORINO";"Piemonte";"Nole";"2011";"2011-08-14T22:12:24Z";"935587896";"7.5715944";"45.2413719999999";
"None";"TORINO";"Piemonte";"None";"2015";"2015-04-27T17:08:04Z";"1615505884";"7.5400398";"44.9379672";
"Oulx";"TORINO";"Piemonte";"Beaulard";"2015";"2015-09-28T08:21:37Z";"1640224804";"6.7598519";"45.0465890999999";
"Oulx";"TORINO";"Piemonte";"Oulx - Cesana - Claviere - Sestriere";"2015";"2015-09-28T08:21:37Z";"256630618";"6.831411";"45.0387309999999";
"Pessinetto";"TORINO";"Piemonte";"Losa";"2012";"2012-12-01T09:36:13Z";"935587965";"7.4187372";"45.283231";
"Pessinetto";"TORINO";"Piemonte";"Losa";"2015";"2015-08-13T09:31:26Z";"3694858091";"7.4187828";"45.2833261999999";
"Pessinetto";"TORINO";"Piemonte";"Pessinetto";"2014";"2014-07-29T22:29:33Z";"935587981";"7.4029198";"45.2893747999999";
"Pessinetto";"TORINO";"Piemonte";"Pessinetto";"2015";"2015-08-13T09:31:26Z";"3694858094";"7.4029327";"45.2895625";
"Pinerolo";"TORINO";"Piemonte";"Pinerolo";"2015";"2015-05-05T01:12:28Z";"2074459767";"7.3373459";"44.8876776999999";
"Pinerolo";"TORINO";"Piemonte";"Pinerolo (Bin 5 per Torre P.)";"2013";"2013-01-05T14:17:10Z";"2096282384";"7.3399797";"44.8877334";
"Pinerolo";"TORINO";"Piemonte";"Pinerolo Olimpica";"2015";"2015-04-27T17:08:04Z";"472748377";"7.3472498";"44.8912662999999";
"Piscina";"TORINO";"Piemonte";"Piscina";"2014";"2014-10-26T22:26:03Z";"373421478";"7.4256045";"44.9218060999999";
"Pont-Canavese";"TORINO";"Piemonte";"Pont Canavese";"2013";"2013-02-23T19:18:38Z";"1782576217";"7.6050194";"45.4203923";
"Rivarolo Canavese";"TORINO";"Piemonte";"Rivarolo Canavese";"2012";"2012-06-10T14:22:57Z";"1782576222";"7.7261909";"45.3284722";
"Rosta";"TORINO";"Piemonte";"Rosta";"2015";"2015-04-27T17:08:05Z";"1594568344";"7.4616681";"45.0782081999999";
"Salassa";"TORINO";"Piemonte";"Salassa - San Ponso";"2012";"2012-12-01T09:24:53Z";"2043486360";"7.6790194";"45.3509170999999";
"Salbertrand";"TORINO";"Piemonte";"Salbertrand";"2015";"2015-05-11T21:25:03Z";"3511147160";"6.8873151";"45.0733168";
"San Benigno Canavese";"TORINO";"Piemonte";"S. Benigno Canavese";"2014";"2014-03-18T20:54:50Z";"1262210078";"7.7820827";"45.2185993";
"San Maurizio Canavese";"TORINO";"Piemonte";"San Maurizio Canavese";"2015";"2015-05-11T21:25:03Z";"3511147161";"7.6302898";"45.2165302";
"Sant'Ambrogio di Torino";"TORINO";"Piemonte";"Sant'Ambrogio";"2015";"2015-05-11T21:25:08Z";"1598759139";"7.3609493";"45.1011329";
"Sant'Antonino di Susa";"TORINO";"Piemonte";"Sant'Antonino - Vaie";"2015";"2015-09-27T21:49:26Z";"1598967752";"7.275873";"45.1094143999999";
"Settimo Torinese";"TORINO";"Piemonte";"Settimo Torinese";"2015";"2015-09-08T08:34:21Z";"2043486366";"7.7694909";"45.1399254";
"Strambino";"TORINO";"Piemonte";"Strambino";"2012";"2012-11-20T09:13:00Z";"1003476683";"7.8879662";"45.3825105";
"Tavagnasco";"TORINO";"Piemonte";"Settimo-Tavagnasco";"2014";"2014-03-26T11:53:38Z";"376298380";"7.8251276";"45.5461387";
"Torino";"TORINO";"Piemonte";"Bernini";"2014";"2014-12-26T10:37:40Z";"332648606";"7.655793";"45.0760134";
"Torino";"TORINO";"Piemonte";"Carducci-Molinette";"2015";"2015-10-12T13:14:58Z";"3253332071";"7.6711553";"45.0424483999999";
"Torino";"TORINO";"Piemonte";"Dante";"2015";"2015-10-12T13:07:37Z";"893193542";"7.6728829";"45.0469037";
"Torino";"TORINO";"Piemonte";"Lingotto";"2014";"2014-12-26T10:52:24Z";"1213993967";"7.6668751";"45.03135";
"Torino";"TORINO";"Piemonte";"Madonna di Campagna";"2015";"2015-04-27T17:08:03Z";"2043486353";"7.6634925";"45.1038647999999";
"Torino";"TORINO";"Piemonte";"Marche";"2014";"2014-12-26T10:24:48Z";"496268561";"7.6147978";"45.0743281999999";
"Torino";"TORINO";"Piemonte";"Marconi";"2015";"2015-10-12T13:17:33Z";"1622042729";"7.6768522";"45.0571422";
"Torino";"TORINO";"Piemonte";"Massaua";"2015";"2015-02-22T17:59:37Z";"496268560";"7.62014";"45.0745688";
"Torino";"TORINO";"Piemonte";"Monte Grappa";"2014";"2014-12-26T10:24:49Z";"496268558";"7.6364023";"45.0752393";
"Torino";"TORINO";"Piemonte";"Nizza";"2014";"2014-12-26T10:45:44Z";"1621697594";"7.6746207";"45.0514359";
"Torino";"TORINO";"Piemonte";"Porta Nuova";"2015";"2015-10-12T13:19:53Z";"254594415";"7.6789628";"45.0627466999999";
"Torino";"TORINO";"Piemonte";"Porta Susa";"2015";"2015-10-13T08:09:21Z";"432803701";"7.6652976";"45.0706476";
"Torino";"TORINO";"Piemonte";"Pozzo Strada";"2014";"2014-12-26T10:24:51Z";"496268559";"7.6291804";"45.0749417999999";
"Torino";"TORINO";"Piemonte";"Principi D'Acaja";"2014";"2014-12-26T10:37:42Z";"2081499942";"7.6646568";"45.0763796999999";
"Torino";"TORINO";"Piemonte";"Racconigi";"2014";"2014-12-26T10:37:43Z";"1095052533";"7.6490994";"45.0757392";
"Torino";"TORINO";"Piemonte";"Re Umberto";"2014";"2014-12-26T10:45:45Z";"254594416";"7.6741257";"45.0644925";
"Torino";"TORINO";"Piemonte";"Rivoli";"2014";"2014-12-26T10:37:44Z";"332648726";"7.6442201";"45.0755393999999";
"Torino";"TORINO";"Piemonte";"Spezia";"2014";"2014-05-29T15:24:14Z";"1621378603";"7.6694774";"45.0381417999999";
"Torino";"TORINO";"Piemonte";"Spezia";"2015";"2015-10-13T08:07:30Z";"3784306376";"7.6694774";"45.0381417999999";
"Torino";"TORINO";"Piemonte";"Torino Dora GTT";"2012";"2012-11-20T21:44:56Z";"456752353";"7.6772699";"45.0908026999999";
"Torino";"TORINO";"Piemonte";"Torino Lingotto";"2012";"2012-12-01T09:24:54Z";"2043486370";"7.6568231";"45.0265963";
"Torino";"TORINO";"Piemonte";"Torino Porta Nuova";"2015";"2015-03-12T14:05:13Z";"3395226356";"7.6775203";"45.060896";
"Torino";"TORINO";"Piemonte";"Torino Rebaudengo Fossata";"2015";"2015-03-12T14:03:49Z";"3395218674";"7.686887";"45.0992788";
"Torino";"TORINO";"Piemonte";"Torino San Paolo";"2015";"2015-09-27T21:49:25Z";"3761981690";"7.6399779";"45.0549565999999";
"Torino";"TORINO";"Piemonte";"Torino Stura";"2014";"2014-02-06T10:42:07Z";"2043486469";"7.7135965";"45.1216888";
"Torino";"TORINO";"Piemonte";"Vinzaglio";"2014";"2014-12-26T10:45:46Z";"543360161";"7.6664177";"45.0672391";
"Torino";"TORINO";"Piemonte";"XVIII Dicembre";"2015";"2015-10-12T13:24:49Z";"432803698";"7.6680557";"45.0737652999999";
"Torrazza Piemonte";"TORINO";"Piemonte";"Torrazza Piemonte";"2015";"2015-01-19T20:01:43Z";"3299164159";"7.9700492";"45.2118231999999";
"Torre Pellice";"TORINO";"Piemonte";"Torre Pellice";"2014";"2014-10-26T22:26:03Z";"579719635";"7.2261535";"44.8188987999999";
"Traves";"TORINO";"Piemonte";"Traves";"2014";"2014-08-30T13:34:51Z";"935587990";"7.4367896";"45.2715792999999";
"Trofarello";"TORINO";"Piemonte";"Trofarello";"2015";"2015-06-04T21:14:12Z";"1885392454";"7.7352375";"44.9805251";
"Valperga";"TORINO";"Piemonte";"Valperga";"2012";"2012-12-01T09:24:57Z";"2043486530";"7.6609359";"45.3693779";
"Venaria Reale";"TORINO";"Piemonte";"Torino Rigola - Stadio";"2015";"2015-04-27T17:08:05Z";"456786906";"7.648112";"45.1177307";
"Venaria Reale";"TORINO";"Piemonte";"Venaria";"2011";"2011-12-26T22:53:08Z";"636038148";"7.6348323";"45.1322258";
"Verolengo";"TORINO";"Piemonte";"Borgo Revel";"2015";"2015-01-17T19:10:47Z";"3295059581";"8.0182912";"45.1900368";
"Verolengo";"TORINO";"Piemonte";"Verolengo";"2015";"2015-01-17T19:02:36Z";"3295050369";"7.9695153";"45.1930107";
"Villanova Canavese";"TORINO";"Piemonte";"Villanova - Grosso";"2015";"2015-05-11T21:25:09Z";"935587935";"7.5561534";"45.24841";
"Villastellone";"TORINO";"Piemonte";"Villastellone";"2015";"2015-04-27T17:08:05Z";"2043486548";"7.7493729";"44.9206202";
"Volpiano";"TORINO";"Piemonte";"Volpiano";"2014";"2014-03-14T20:08:25Z";"1262192492";"7.7798498";"45.2007420999999";
"Bianze'";"VERCELLI";"Piemonte";"Bianzè";"2015";"2015-01-19T17:41:36Z";"3298858771";"8.1155536";"45.3093435999999";
"Borgosesia";"VERCELLI";"Piemonte";"Borgosesia";"2014";"2014-12-30T13:21:27Z";"840641567";"8.2831957";"45.7163074999999";
"Crescentino";"VERCELLI";"Piemonte";"Crescentino";"2015";"2015-01-17T19:48:40Z";"3295114158";"8.1071833";"45.1941520999999";
"Fontanetto Po";"VERCELLI";"Piemonte";"Fontanetto Po";"2015";"2015-01-18T09:51:30Z";"3296246023";"8.1887161";"45.1912961";
"Ghislarengo";"VERCELLI";"Piemonte";"Ghislarengo";"2015";"2015-03-29T20:20:28Z";"2104372967";"8.37936949999999";"45.5260415999999";
"Livorno Ferraris";"VERCELLI";"Piemonte";"Livorno Ferraris";"2015";"2015-01-19T19:23:59Z";"3299100561";"8.07361369999999";"45.2833413999999";
"Olcenengo";"VERCELLI";"Piemonte";"Olcenengo";"2015";"2015-01-18T21:29:40Z";"3297528507";"8.3100934";"45.3415049999999";
"Pertengo";"VERCELLI";"Piemonte";"Pertengo";"2015";"2015-02-14T22:14:06Z";"3297080885";"8.4267511";"45.2332892";
"Rovasenda";"VERCELLI";"Piemonte";"Rovasenda";"2012";"2012-07-24T10:11:44Z";"266648915";"8.3172782";"45.5372344999999";
"Santhia'";"VERCELLI";"Piemonte";"Santhià";"2015";"2015-01-19T15:53:24Z";"448862155";"8.1800187";"45.3638679999999";
"Trino";"VERCELLI";"Piemonte";"Trino Vercellese";"2015";"2015-01-18T10:31:03Z";"3296287503";"8.2941623";"45.1900868";
"Varallo";"VERCELLI";"Piemonte";"Varallo Sesia";"2014";"2014-12-30T14:45:17Z";"840641920";"8.2592611";"45.8142988";
"Vercelli";"VERCELLI";"Piemonte";"Vercelli";"2015";"2015-04-29T14:18:35Z";"583067029";"8.41644329999999";"45.3300577999999";
"Arona";"NOVARA";"Piemonte";"Arona";"2013";"2013-06-01T15:08:44Z";"283154029";"8.5590071";"45.7554266";
"Bellinzago Novarese";"NOVARA";"Piemonte";"Bellinzago";"2013";"2013-05-30T20:04:36Z";"2326261018";"8.62765609999999";"45.5667485";
"Borgolavezzaro";"NOVARA";"Piemonte";"Borgo Lavezzaro";"2014";"2014-05-20T16:19:09Z";"1699250873";"8.7031829";"45.3187343";
"Borgomanero";"NOVARA";"Piemonte";"Borgomanero";"2012";"2012-12-30T09:41:48Z";"844503597";"8.4680516";"45.7008136999999";
"Briona";"NOVARA";"Piemonte";"Briona";"2013";"2013-01-10T15:47:31Z";"2104372964";"8.4787993";"45.538625";
"Caltignaga";"NOVARA";"Piemonte";"Caltignaga";"2011";"2011-12-17T15:48:18Z";"953123742";"8.59161819999999";"45.5191981999999";
"Carpignano Sesia";"NOVARA";"Piemonte";"Carpignano Sesia";"2013";"2013-01-10T15:47:31Z";"2104372965";"8.4228957";"45.5288898";
"Casaleggio Novara";"NOVARA";"Piemonte";"Casaleggio";"2012";"2012-07-24T10:11:46Z";"1639364538";"8.4903373";"45.4913049999999";
"Casalino";"NOVARA";"Piemonte";"Ponzana";"2011";"2011-12-17T15:48:20Z";"904481035";"8.5227637";"45.4026593999999";
"Castelletto Sopra Ticino";"NOVARA";"Piemonte";"Castelletto Ticino";"2014";"2014-02-16T13:37:24Z";"1743189699";"8.638368";"45.7108132999999";
"Cressa";"NOVARA";"Piemonte";"Cressa-Fontaneto";"2012";"2012-02-11T17:32:49Z";"371042877";"8.4985296";"45.6461361";
"Fara Novarese";"NOVARA";"Piemonte";"Fara Novarese";"2014";"2014-08-24T16:58:13Z";"2104372966";"8.4581328";"45.5504966999999";
"Galliate";"NOVARA";"Piemonte";"Galliate";"2013";"2013-05-31T15:14:19Z";"2123709349";"8.6911944";"45.4811448999999";
"Garbagna Novarese";"NOVARA";"Piemonte";"Garbagna Novarese";"2012";"2012-10-11T14:29:24Z";"1958586744";"8.6664691";"45.3855860999999";
"Ghemme";"NOVARA";"Piemonte";"Ghemme";"2013";"2013-01-03T11:52:47Z";"1507520845";"8.41769019999999";"45.5954388999999";
"Gozzano";"NOVARA";"Piemonte";"Gozzano";"2015";"2015-05-11T21:25:07Z";"1580836063";"8.4408904";"45.7444023999999";
"Grignasco";"NOVARA";"Piemonte";"";"2013";"2013-12-26T12:10:52Z";"2595122346";"8.3337993";"45.6829256999999";
"Grignasco";"NOVARA";"Piemonte";"Grignasco";"2013";"2013-01-10T15:47:31Z";"2104372968";"8.3336703";"45.6828314999999";
"Marano Ticino";"NOVARA";"Piemonte";"Marano Ticino";"2014";"2014-02-17T14:12:58Z";"2326282629";"8.6261776";"45.6295179999999";
"Momo";"NOVARA";"Piemonte";"Momo";"2011";"2011-12-17T15:48:18Z";"866830895";"8.5569086";"45.5746585999999";
"Novara";"NOVARA";"Piemonte";"Novara";"2015";"2015-04-29T14:18:34Z";"632019538";"8.624966";"45.4511445999999";
"Novara";"NOVARA";"Piemonte";"Novara Nord";"2015";"2015-03-08T15:52:19Z";"727694125";"8.627014";"45.4523111999999";
"Novara";"NOVARA";"Piemonte";"Vignale";"2013";"2013-01-10T15:47:32Z";"2104372971";"8.6131606";"45.4790001";
"Oleggio";"NOVARA";"Piemonte";"Oleggio";"2013";"2013-05-31T15:11:26Z";"617636371";"8.63269189999999";"45.5980536";
"Orta San Giulio";"NOVARA";"Piemonte";"Orta-Miasino";"2013";"2013-02-07T21:41:21Z";"820255764";"8.4212589";"45.7958834";
"Prato Sesia";"NOVARA";"Piemonte";"Prato Sesia";"2013";"2013-01-10T15:47:31Z";"2104372969";"8.3704181";"45.6464130999999";
"Romagnano Sesia";"NOVARA";"Piemonte";"Romagnano Sesia";"2013";"2013-06-03T09:04:06Z";"2104247790";"8.38465899999999";"45.6299090999999";
"Romagnano Sesia";"NOVARA";"Piemonte";"Romagnano Sesia";"2014";"2014-02-06T10:42:07Z";"2622304232";"8.3847457";"45.6300109";
"San Pietro Mosezzo";"NOVARA";"Piemonte";"Nibbia";"2013";"2013-01-10T15:47:44Z";"266648931";"8.5580575";"45.4813821999999";
"Sillavengo";"NOVARA";"Piemonte";"Sillavengo";"2013";"2013-01-10T15:47:31Z";"2104372970";"8.4449893";"45.5213199";
"Sizzano";"NOVARA";"Piemonte";"Sizzano";"2013";"2013-01-10T14:01:25Z";"1614306464";"8.43603899999999";"45.5738429";
"Suno";"NOVARA";"Piemonte";"Suno";"2011";"2011-12-17T15:48:20Z";"456252025";"8.5192963";"45.6205119999999";
"Trecate";"NOVARA";"Piemonte";"Trecate";"2015";"2015-04-29T14:18:35Z";"256639315";"8.7394607";"45.428533";
"Vaprio d'Agogna";"NOVARA";"Piemonte";"Vaprio d'Agogna";"2014";"2014-09-14T05:57:50Z";"459818820";"8.5366807";"45.5992887999999";
"Vespolate";"NOVARA";"Piemonte";"Vespolate";"2015";"2015-01-13T08:48:01Z";"3285456261";"8.672019";"45.3515455";
"Alba";"CUNEO";"Piemonte";"Alba";"2013";"2013-12-29T16:43:11Z";"2043486312";"8.0308507";"44.6978111";
"Alba";"CUNEO";"Piemonte";"Mussotto";"2015";"2015-04-27T17:41:51Z";"3481954068";"8.0167473";"44.7134044";
"Bagnasco";"CUNEO";"Piemonte";"Bagnasco";"2015";"2015-09-15T20:29:11Z";"3744624949";"8.0461332";"44.3033239";
"Borgo San Dalmazzo";"CUNEO";"Piemonte";"Borgo San Dalmazzo";"2012";"2012-12-06T13:41:32Z";"2052772773";"7.4860999";"44.3263840999999";
"Bra";"CUNEO";"Piemonte";"Bandito";"2015";"2015-04-27T17:41:52Z";"2043486313";"7.8193528";"44.7220299999999";
"Bra";"CUNEO";"Piemonte";"Bra";"2013";"2013-05-04T21:56:46Z";"2043486320";"7.848629";"44.6936674999999";
"Cavallermaggiore";"CUNEO";"Piemonte";"Cavallermaggiore";"2015";"2015-04-27T17:41:52Z";"2043486341";"7.6918108";"44.7081947";
"Cavallermaggiore";"CUNEO";"Piemonte";"Madonna Del Pilone";"2012";"2012-12-06T20:39:12Z";"1639379130";"7.7474988";"44.6953938999999";
"Ceva";"CUNEO";"Piemonte";"Ceva";"2016";"2016-01-27T15:04:28Z";"1296742340";"8.0319114";"44.3897533999999";
"Cuneo";"CUNEO";"Piemonte";"Cuneo";"2015";"2015-03-15T20:32:58Z";"2052009202";"7.5363418";"44.3878004999999";
"Cuneo";"CUNEO";"Piemonte";"Cuneo Gesso";"2015";"2015-04-27T17:41:52Z";"2052009195";"7.5559013";"44.3942606999999";
"Fossano";"CUNEO";"Piemonte";"Fossano";"2015";"2015-04-27T17:41:51Z";"3481954067";"7.7178806";"44.5502979999999";
"Garessio";"CUNEO";"Piemonte";"Garessio";"2015";"2015-09-15T20:08:13Z";"3744606437";"8.0165598";"44.2005607999999";
"Garessio";"CUNEO";"Piemonte";"Trappa";"2015";"2015-10-18T14:51:27Z";"728918596";"7.9943977";"44.1853611";
"Lesegno";"CUNEO";"Piemonte";"Lesegno";"2011";"2011-11-19T22:12:47Z";"1344840004";"7.9427234";"44.385897";
"Limone Piemonte";"CUNEO";"Piemonte";"Limone Piemonte";"2013";"2013-11-08T15:07:27Z";"2052772775";"7.5776657";"44.2036553";
"Magliano Alpi";"CUNEO";"Piemonte";"Magliano Crava-Morozzo";"2015";"2015-04-27T17:41:52Z";"1640534005";"7.7775334";"44.4451547";
"Mondovi'";"CUNEO";"Piemonte";"Mondovì";"2016";"2016-01-28T10:30:51Z";"247367163";"7.8161467";"44.3983528999999";
"Monticello d'Alba";"CUNEO";"Piemonte";"Monticello d'Alba";"2015";"2015-04-27T17:41:53Z";"1640443322";"7.9649633";"44.7038183";
"Ormea";"CUNEO";"Piemonte";"Eca - Nasagò";"2010";"2010-05-23T19:24:07Z";"727181412";"7.9650701";"44.1607509999999";
"Ormea";"CUNEO";"Piemonte";"Ormea";"2015";"2015-09-15T07:43:54Z";"377628185";"7.9141957";"44.1501888";
"Pianfei";"CUNEO";"Piemonte";"Margarita";"2016";"2016-01-29T09:11:22Z";"1639317279";"7.6857431";"44.380147";
"Pocapaglia";"CUNEO";"Piemonte";"Pocapaglia";"2015";"2015-09-15T21:52:46Z";"3744716698";"7.8925324";"44.7011366999999";
"Priola";"CUNEO";"Piemonte";"Priola";"2015";"2015-09-15T20:11:32Z";"3744610806";"8.0233779";"44.2486651999999";
"Racconigi";"CUNEO";"Piemonte";"Racconigi";"2015";"2015-10-07T20:53:11Z";"2043486359";"7.685515";"44.7712087";
"Robilante";"CUNEO";"Piemonte";"Robilante";"2012";"2012-12-06T13:41:32Z";"2052772776";"7.5108217";"44.2964069";
"Roccavione";"CUNEO";"Piemonte";"Roccavione";"2013";"2013-11-08T15:07:27Z";"1446240458";"7.4852688";"44.3144411999999";
"Sale delle Langhe";"CUNEO";"Piemonte";"Sale Langhe";"2012";"2012-12-06T15:21:07Z";"2052849923";"8.0773894";"44.3924683999999";
"Saliceto";"CUNEO";"Piemonte";"Saliceto";"2013";"2013-12-03T09:49:04Z";"2052849930";"8.17278089999999";"44.4045433";
"Saluzzo";"CUNEO";"Piemonte";"Saluzzo";"2014";"2014-10-26T22:26:03Z";"3064717221";"7.4985484";"44.6430019";
"Sanfre'";"CUNEO";"Piemonte";"Sanfré";"2015";"2015-04-27T17:41:53Z";"2043486363";"7.7969341";"44.7480531";
"Santa Vittoria d'Alba";"CUNEO";"Piemonte";"Santa Vittoria";"2012";"2012-12-06T20:39:07Z";"2053312536";"7.9159746";"44.6958310999999";
"Savigliano";"CUNEO";"Piemonte";"Savigliano";"2012";"2012-12-01T09:24:53Z";"2043486365";"7.6634844";"44.6513374";
"Sommariva del Bosco";"CUNEO";"Piemonte";"Sommariva del Bosco";"2015";"2015-04-27T17:41:53Z";"1960178652";"7.7777126";"44.770206";
"Trinita'";"CUNEO";"Piemonte";"Trinità Bene Vagienna";"2015";"2015-04-27T17:41:53Z";"1640523110";"7.7528658";"44.5047162999999";
"Vernante";"CUNEO";"Piemonte";"Vernante";"2013";"2013-11-08T15:07:28Z";"2052772795";"7.5358929";"44.2445807";
"Verzuolo";"CUNEO";"Piemonte";"Verzuolo";"2012";"2012-08-28T18:48:19Z";"1887204608";"7.4871005";"44.5987913";
"Vicoforte";"CUNEO";"Piemonte";"Vicoforte-San Michele";"2015";"2015-04-27T17:41:53Z";"1509216927";"7.8947661";"44.3740329";
"Agliano";"ASTI";"Piemonte";"Castelnuovo Calcea";"2011";"2011-12-26T18:12:30Z";"315144602";"8.2676924";"44.786144";
"Asti";"ASTI";"Piemonte";"Asti";"2014";"2014-05-29T16:09:10Z";"2433651781";"8.2077474";"44.8948511999999";
"Asti";"ASTI";"Piemonte";"San Damiano d'Asti";"2013";"2013-08-27T22:28:05Z";"1400968562";"8.1259846";"44.878877";
"Calamandrana";"ASTI";"Piemonte";"Calamandrana";"2014";"2014-03-31T19:37:30Z";"1640571663";"8.33163459999999";"44.7389098";
"Canelli";"ASTI";"Piemonte";"Canelli";"2011";"2011-11-13T10:46:29Z";"1501192007";"8.28863119999999";"44.7147616999999";
"Castagnole delle Lanze";"ASTI";"Piemonte";"Castagnole delle Lanze";"2015";"2015-04-17T19:36:57Z";"1501192012";"8.1522092";"44.7489149";
"Castello di Annone";"ASTI";"Piemonte";"Castello d'Annone";"2012";"2012-08-30T06:25:39Z";"1889407786";"8.31270439999999";"44.8788196";
"Castello di Annone";"ASTI";"Piemonte";"Rocchetta Tanaro-Cerro";"2013";"2013-12-10T22:06:42Z";"1889407790";"8.351378";"44.8754757999999";
"Isola d'Asti";"ASTI";"Piemonte";"Isola d'Asti";"2013";"2013-09-24T10:12:45Z";"2469860998";"8.17519169999999";"44.8305756999999";
"Isola d'Asti";"ASTI";"Piemonte";"Molini d'Isola";"2015";"2015-04-08T20:39:06Z";"3445499406";"8.1867248";"44.8412774";
"Mombaldone";"ASTI";"Piemonte";"Mombaldone-Roccaverano";"2016";"2016-01-20T16:24:37Z";"920079458";"8.3326132";"44.5698476";
"Mombaruzzo";"ASTI";"Piemonte";"Bazzana";"2014";"2014-05-17T14:08:22Z";"2864467102";"8.4015238";"44.7770379999999";
"Mombaruzzo";"ASTI";"Piemonte";"Mombaruzzo";"2011";"2011-05-21T11:44:25Z";"315378389";"8.4409879";"44.7623578999999";
"Moncalvo";"ASTI";"Piemonte";"Moncalvo";"2015";"2015-02-14T23:21:00Z";"3350864402";"8.26177569999999";"45.0594840999999";
"Montegrosso d'Asti";"ASTI";"Piemonte";"Montegrosso";"2016";"2016-01-22T10:16:05Z";"315386274";"8.2391501";"44.8184891";
"Nizza Monferrato";"ASTI";"Piemonte";"Nizza Monferrato";"2015";"2015-04-26T21:30:49Z";"315145029";"8.3611079";"44.7730101";
"San Paolo Solbrito";"ASTI";"Piemonte";"San Paolo Solbrito";"2015";"2015-04-27T17:08:05Z";"374563977";"7.9757298";"44.9517329999999";
"Tigliole";"ASTI";"Piemonte";"Baldichieri-Tigliole";"2015";"2015-03-29T20:20:28Z";"374564698";"8.0912424";"44.8991620999999";
"Vigliano d'Asti";"ASTI";"Piemonte";"Vigliano d'Asti";"2015";"2015-10-29T23:02:30Z";"374566801";"8.2182906";"44.8273421";
"Villafranca d'Asti";"ASTI";"Piemonte";"Villafranca Cantarana";"2015";"2015-04-27T17:08:05Z";"2435080090";"8.0437992";"44.9089411";
"Villanova d'Asti";"ASTI";"Piemonte";"Villanova d'Asti";"2015";"2015-04-27T17:08:05Z";"2939324404";"7.9470577";"44.9631327999999";
"Acqui Terme";"ALESSANDRIA";"Piemonte";"Acqui Terme";"2015";"2015-04-26T21:30:48Z";"1164613215";"8.47353309999999";"44.6722966";
"Alessandria";"ALESSANDRIA";"Piemonte";"Alessandria Smistamento";"2012";"2012-07-23T15:55:30Z";"1835475015";"8.59555759999999";"44.9048754";
"Alessandria";"ALESSANDRIA";"Piemonte";"Cantalupo";"2015";"2015-04-26T21:30:48Z";"376298932";"8.5513256";"44.8648542";
"Alessandria";"ALESSANDRIA";"Piemonte";"Spinetta";"2015";"2015-04-26T21:30:49Z";"2139474783";"8.68316609999999";"44.8823725";
"Alessandria";"ALESSANDRIA";"Piemonte";"Terminal DB Autozug";"2013";"2013-12-10T16:07:46Z";"2468696445";"8.60472219999999";"44.9111911999999";
"Alice Bel Colle";"ALESSANDRIA";"Piemonte";"Alice Bel Colle";"2011";"2011-05-21T10:04:03Z";"1294463103";"8.4400751";"44.7226487";
"Arquata Scrivia";"ALESSANDRIA";"Piemonte";"Arquata Scrivia";"2013";"2013-11-06T08:55:28Z";"603358748";"8.88518099999999";"44.6923413";
"Bistagno";"ALESSANDRIA";"Piemonte";"Bistagno";"2016";"2016-01-21T09:23:16Z";"377644551";"8.3720753";"44.6592443999999";
"Borgoratto Alessandrino";"ALESSANDRIA";"Piemonte";"Borgoratto";"2015";"2015-04-26T21:30:48Z";"1381717095";"8.5381593";"44.8360053999999";
"Borgo San Martino";"ALESSANDRIA";"Piemonte";"Borgo San Martino";"2015";"2015-02-14T22:24:19Z";"3296615161";"8.52063399999999";"45.0871";
"Casale Monferrato";"ALESSANDRIA";"Piemonte";"Casale Popolo";"2015";"2015-01-18T11:28:39Z";"3296349161";"8.4404705";"45.1603907";
"Cassano Spinola";"ALESSANDRIA";"Piemonte";"Cassano Spinola";"2015";"2015-10-24T16:54:10Z";"257687403";"8.8588187";"44.7626210999999";
"Cassine";"ALESSANDRIA";"Piemonte";"Cassine";"2015";"2015-04-27T17:41:52Z";"1381717102";"8.5336693";"44.7514838";
"Castellazzo Bormida";"ALESSANDRIA";"Piemonte";"Castellazzo-Casalcermelli";"2015";"2015-09-14T21:50:02Z";"3743462879";"8.5895904";"44.8433901";
"Felizzano";"ALESSANDRIA";"Piemonte";"Felizzano";"2015";"2015-09-02T08:51:03Z";"1889029498";"8.43749429999999";"44.8934702";
"Gamalero";"ALESSANDRIA";"Piemonte";"Gamalero";"2011";"2011-10-07T21:42:15Z";"1381717096";"8.5434737";"44.8174788";
"Gamalero";"ALESSANDRIA";"Piemonte";"Sezzadio";"2011";"2011-10-07T21:42:15Z";"1381717101";"8.5497104";"44.8000601";
"Giarole";"ALESSANDRIA";"Piemonte";"Giarole";"2015";"2015-01-18T14:31:06Z";"3296632272";"8.5609815";"45.0561279";
"Montechiaro d'Acqui";"ALESSANDRIA";"Piemonte";"Montechiaro d'Acqui";"2016";"2016-01-21T09:23:17Z";"1381717112";"8.3522016";"44.6007763";
"Morano sul Po";"ALESSANDRIA";"Piemonte";"Morano sul Po";"2015";"2015-01-18T10:58:05Z";"3296311352";"8.36617749999999";"45.1706971999999";
"Novi Ligure";"ALESSANDRIA";"Piemonte";"Novi Ligure";"2015";"2015-04-26T21:30:49Z";"321629823";"8.7874596";"44.7623821";
"Ovada";"ALESSANDRIA";"Piemonte";"Molare";"2016";"2016-02-10T15:50:20Z";"315478559";"8.6099046";"44.6219845";
"Ovada";"ALESSANDRIA";"Piemonte";"Ovada";"2016";"2016-02-10T15:50:20Z";"315478600";"8.6324304";"44.6303977";
"Ovada";"ALESSANDRIA";"Piemonte";"Ovada Nord";"2011";"2011-05-22T07:38:15Z";"611625558";"8.6446147";"44.6466017999999";
"Oviglio";"ALESSANDRIA";"Piemonte";"Oviglio";"2011";"2011-05-22T22:16:13Z";"377016739";"8.4952363";"44.8597132";
"Ponti";"ALESSANDRIA";"Piemonte";"Ponti";"2016";"2016-01-21T09:23:17Z";"1381717111";"8.3652131";"44.6300304";
"Pozzolo Formigaro";"ALESSANDRIA";"Piemonte";"Pozzolo Formigaro";"2013";"2013-01-16T11:02:59Z";"2113528782";"8.7826434";"44.7975418999999";
"Prasco";"ALESSANDRIA";"Piemonte";"Prasco Cremolino";"2016";"2016-02-10T15:56:29Z";"315478535";"8.5500109";"44.6489107";
"Predosa";"ALESSANDRIA";"Piemonte";"Predosa";"2012";"2012-08-07T10:52:41Z";"1855432885";"8.6511654";"44.7509506";
"Serravalle Scrivia";"ALESSANDRIA";"Piemonte";"Serravalle Scrivia";"2015";"2015-02-15T21:50:00Z";"262069742";"8.8584919";"44.7238967999999";
"Solero";"ALESSANDRIA";"Piemonte";"Solero";"2012";"2012-08-29T15:53:41Z";"1888436378";"8.51043409999999";"44.9159196";
"Spigno Monferrato";"ALESSANDRIA";"Piemonte";"Spigno";"2016";"2016-01-20T16:24:36Z";"377644261";"8.3179328";"44.5394454999999";
"Strevi";"ALESSANDRIA";"Piemonte";"Strevi";"2015";"2015-04-27T17:41:53Z";"1381717103";"8.5255274";"44.6977009";
"Terzo";"ALESSANDRIA";"Piemonte";"Terzo Montabone";"2016";"2016-01-21T15:26:13Z";"1381717110";"8.4287557";"44.671937";
"Tortona";"ALESSANDRIA";"Piemonte";"Rivalta Scrivia";"2014";"2014-07-12T20:13:13Z";"1630425210";"8.8100874";"44.8541110999999";
"Tortona";"ALESSANDRIA";"Piemonte";"Tortona";"2012";"2012-08-30T21:14:21Z";"1890584863";"8.8619694";"44.9000204";
"Villalvernia";"ALESSANDRIA";"Piemonte";"Villalvernia";"2015";"2015-10-11T07:45:03Z";"2113528785";"8.85578699999999";"44.8106201";
"Visone";"ALESSANDRIA";"Piemonte";"Visone";"2011";"2011-05-22T07:38:15Z";"315469311";"8.5002345";"44.6619457999999";
"Aosta";"AOSTA";"Valle d'Aosta";"Aosta";"2015";"2015-05-12T17:33:21Z";"1741361232";"7.3223231";"45.7343526";
"Aosta";"AOSTA";"Valle d'Aosta";"Aosta Istituto";"2012";"2012-12-04T15:52:03Z";"1640283581";"7.3069203";"45.7316965999999";
"Aosta";"AOSTA";"Valle d'Aosta";"Aosta Viale Europa";"2012";"2012-12-04T15:52:03Z";"1836230430";"7.2959561";"45.7325402999999";
"Arvier";"AOSTA";"Valle d'Aosta";"Stazione Ferroviaria di Arvier";"2015";"2015-05-12T17:33:21Z";"2049912508";"7.1666683";"45.7041127";
"Avise";"AOSTA";"Valle d'Aosta";"Stazione Ferroviaria di Avise";"2015";"2015-05-12T17:33:21Z";"2049927108";"7.1313188";"45.7062668";
"Chambave";"AOSTA";"Valle d'Aosta";"Stazione Ferroviaria di Chambave";"2015";"2015-05-12T17:33:21Z";"2049882381";"7.557224";"45.7443192";
"Chatillon";"AOSTA";"Valle d'Aosta";"Stazione Ferroviaria di Châtillon-Saint-Vincent";"2012";"2012-12-05T19:00:05Z";"1640274974";"7.619269";"45.7435539";
"Donnas";"AOSTA";"Valle d'Aosta";"Stazione Ferroviaria di Donnas";"2016";"2016-01-18T21:22:33Z";"2051540021";"7.769535";"45.6028534";
"Gressan";"AOSTA";"Valle d'Aosta";"";"2012";"2012-05-19T11:44:55Z";"411518713";"7.3082251";"45.695656";
"Hone";"AOSTA";"Valle d'Aosta";"Stazione Ferroviaria di Hône-Bard";"2016";"2016-01-18T21:22:33Z";"1747335198";"7.7414598";"45.6139617999999";
"La Salle";"AOSTA";"Valle d'Aosta";"Stazione Ferroviaria di Derby";"2015";"2015-05-12T17:33:22Z";"1640426663";"7.0865314";"45.7303884";
"La Salle";"AOSTA";"Valle d'Aosta";"Stazione Ferroviaria di La Salle";"2015";"2015-05-12T17:33:22Z";"1640413043";"7.0621349";"45.7446069";
"Montjovet";"AOSTA";"Valle d'Aosta";"Stazione Ferroviaria di Montjovet";"2012";"2012-12-05T17:22:39Z";"1720525887";"7.6669082";"45.7043722";
"Morgex";"AOSTA";"Valle d'Aosta";"Stazione Ferroviaria di Morgex";"2015";"2015-05-12T17:33:22Z";"550350220";"7.0339889";"45.7572363999999";
"Nus";"AOSTA";"Valle d'Aosta";"Stazione Ferroviaria di Nus";"2015";"2015-05-12T17:33:22Z";"2049882388";"7.4710889";"45.7389078";
"Pont-Saint-Martin";"AOSTA";"Valle d'Aosta";"Pont-Saint-Martin";"2016";"2016-01-18T21:22:33Z";"653945394";"7.7949642";"45.5898436";
"Pre'-Saint-Didier";"AOSTA";"Valle d'Aosta";"Pré-Saint-Didier";"2015";"2015-09-09T13:31:35Z";"2049882392";"6.9915358";"45.7636025999999";
"Quart";"AOSTA";"Valle d'Aosta";"Stazione Ferroviaria di Quart";"2012";"2012-12-05T17:31:47Z";"2049882395";"7.4145997";"45.7412411999999";
"Saint-Pierre";"AOSTA";"Valle d'Aosta";"Saint-Pierre";"2016";"2016-01-18T21:22:33Z";"1836229459";"7.2321994";"45.7086826999999";
"Saint-Vincent";"AOSTA";"Valle d'Aosta";"Stazione Saint-Vincent";"2012";"2012-12-05T17:22:40Z";"2051515318";"7.6460572";"45.7436854999999";
"Sarre";"AOSTA";"Valle d'Aosta";"Sarre";"2015";"2015-05-12T17:33:21Z";"2049882398";"7.2584507";"45.7179538999999";
"Verres";"AOSTA";"Valle d'Aosta";"Verres";"2015";"2015-05-12T17:33:22Z";"1640267729";"7.6901244";"45.6599039999999";
"Villeneuve";"AOSTA";"Valle d'Aosta";"Villeneuve";"2015";"2015-05-12T17:33:22Z";"1982616695";"7.2134691";"45.7065555";
"San Remo";"IMPERIA";"Liguria";"Rail Station Terminal";"2013";"2013-06-24T10:49:15Z";"1721785433";"7.7843118";"43.8222499999999";
"San Remo";"IMPERIA";"Liguria";"Sanremo";"2013";"2013-11-08T15:07:28Z";"1189957679";"7.7843428";"43.8290375999999";
"Ventimiglia";"IMPERIA";"Liguria";"Ventimiglia";"2015";"2015-03-15T20:32:58Z";"2052772794";"7.6098994";"43.792458";
"Albenga";"SAVONA";"Liguria";"Albenga";"2015";"2015-10-28T09:54:21Z";"228748617";"8.2215848";"44.0472893999999";
"Albisola Superiore";"SAVONA";"Liguria";"Albisola";"2015";"2015-12-02T18:28:28Z";"1139661042";"8.511626";"44.3346772";
"Altare";"SAVONA";"Liguria";"Altare";"2013";"2013-12-03T09:49:01Z";"2562592860";"8.3326858";"44.3362401999999";
"Borgio Verezzi";"SAVONA";"Liguria";"Borgio Verezzi";"2014";"2014-04-05T21:02:41Z";"272860999";"8.3090736";"44.1577285999999";
"Cairo Montenotte";"SAVONA";"Liguria";"Cairo Montenotte";"2016";"2016-01-20T15:58:49Z";"835519077";"8.2788775";"44.3940318";
"Cairo Montenotte";"SAVONA";"Liguria";"San Giuseppe di Cairo";"2013";"2013-12-03T09:49:04Z";"1381717181";"8.28837689999999";"44.3701572";
"Cengio";"SAVONA";"Liguria";"Cengio";"2013";"2013-12-03T09:49:04Z";"2052772774";"8.1918892";"44.3906958";
"Ceriale";"SAVONA";"Liguria";"Ceriale";"2015";"2015-10-27T15:12:11Z";"999265954";"8.23414829999999";"44.098944";
"Dego";"SAVONA";"Liguria";"Dego";"2016";"2016-01-20T16:14:11Z";"1381717179";"8.3084911";"44.4480093";
"Finale Ligure";"SAVONA";"Liguria";"Finale Ligure Marina";"2015";"2015-05-17T22:09:55Z";"3524400404";"8.3404074";"44.1691719";
"Loano";"SAVONA";"Liguria";"Loano";"2015";"2015-10-27T13:49:17Z";"251030533";"8.2544199";"44.122441";
"Piana Crixia";"SAVONA";"Liguria";"Piana Crixia";"2016";"2016-01-20T16:14:11Z";"1381717142";"8.3087876";"44.4863994999999";
"Varazze";"SAVONA";"Liguria";"Varazze";"2013";"2013-11-06T08:55:28Z";"244420545";"8.5663185";"44.3566318999999";
"Arenzano";"GENOVA";"Liguria";"Arenzano";"2015";"2015-10-30T09:32:58Z";"244415567";"8.6782211";"44.403067";
"Bogliasco";"GENOVA";"Liguria";"Bogliasco";"2013";"2013-11-05T12:48:14Z";"2154756447";"9.06606189999999";"44.3791599999999";
"Bogliasco";"GENOVA";"Liguria";"Bogliasco";"2013";"2013-11-05T12:48:14Z";"280211303";"9.0660652";"44.3791184";
"Bogliasco";"GENOVA";"Liguria";"Pontetto";"2013";"2013-11-05T12:48:14Z";"2154756452";"9.0769164";"44.3772826";
"Busalla";"GENOVA";"Liguria";"Busalla";"2015";"2015-03-17T14:40:51Z";"734572522";"8.9436592";"44.5754785999999";
"Camogli";"GENOVA";"Liguria";"Camogli";"2015";"2015-12-07T20:38:42Z";"47141761";"9.1566579";"44.3480047999999";
"Campo Ligure";"GENOVA";"Liguria";"Campo Ligure-Masone";"2015";"2015-03-17T14:47:11Z";"2620830612";"8.70087919999999";"44.5308952999999";
"Casella";"GENOVA";"Liguria";"Casella";"2013";"2013-11-06T08:55:28Z";"615199811";"8.9957785";"44.5343597999999";
"Casella";"GENOVA";"Liguria";"Casella Deposito";"2011";"2011-05-31T20:59:11Z";"615199658";"8.9949711";"44.5288899";
"Chiavari";"GENOVA";"Liguria";"Chiavari";"2013";"2013-11-05T12:55:40Z";"203592307";"9.3224788";"44.3151169";
"Cogoleto";"GENOVA";"Liguria";"Cogoleto";"2015";"2015-10-30T09:58:43Z";"1006137115";"8.6438611";"44.3897783";
"Genova";"GENOVA";"Liguria";"Cappuccio";"2011";"2011-06-02T09:55:34Z";"154754222";"8.9432957";"44.4428757";
"Genova";"GENOVA";"Liguria";"Genova Acquasanta";"2013";"2013-11-04T21:29:15Z";"150590675";"8.7732509";"44.4587125999999";
"Genova";"GENOVA";"Liguria";"Genova Borzoli";"2016";"2016-02-10T08:36:29Z";"280350303";"8.86655629999999";"44.4346932999999";
"Genova";"GENOVA";"Liguria";"Genova Brignole";"2014";"2014-02-08T20:24:07Z";"36899984";"8.9469156";"44.4066928";
"Genova";"GENOVA";"Liguria";"Genova Cornigliano";"2013";"2013-11-04T11:57:05Z";"38930728";"8.8650115";"44.4147497";
"Genova";"GENOVA";"Liguria";"Genova Nervi";"2013";"2013-11-04T11:57:04Z";"2034491818";"9.0399213";"44.3812645";
"Genova";"GENOVA";"Liguria";"Genova Pegli";"2013";"2013-11-04T11:57:05Z";"1079777341";"8.8169327";"44.4262178";
"Genova";"GENOVA";"Liguria";"Genova Piazza Manin";"2015";"2015-06-13T23:29:40Z";"173345524";"8.9486838";"44.4146684999999";
"Genova";"GENOVA";"Liguria";"Genova Piazza Principe";"2013";"2013-11-04T11:57:04Z";"1777874067";"8.9211296";"44.4170196999999";
"Genova";"GENOVA";"Liguria";"Genova Pontedecimo";"2013";"2013-12-26T21:06:49Z";"59476367";"8.9056466";"44.4941909";
"Genova";"GENOVA";"Liguria";"Genova Pra";"2015";"2015-11-03T10:25:38Z";"244413642";"8.7891659";"44.4253621";
"Genova";"GENOVA";"Liguria";"Genova Quarto dei Mille";"2013";"2013-11-04T11:57:04Z";"2034479473";"8.9956859";"44.3884978";
"Genova";"GENOVA";"Liguria";"Genova Quinto al Mare";"2015";"2015-10-23T12:39:28Z";"2034481141";"9.0204137";"44.38505";
"Genova";"GENOVA";"Liguria";"Genova Rivarolo";"2013";"2013-11-04T21:21:36Z";"913563023";"8.8910333";"44.4361132";
"Genova";"GENOVA";"Liguria";"Genova Sampierdarena";"2013";"2013-11-04T11:57:05Z";"38929465";"8.8867733";"44.4135258";
"Genova";"GENOVA";"Liguria";"Genova Sestri Ponente - Aeroporto";"2015";"2015-10-23T11:46:39Z";"1061990568";"8.8480524";"44.4223542";
"Genova";"GENOVA";"Liguria";"Genova Sturla";"2013";"2013-11-04T11:57:04Z";"2034475522";"8.981369";"44.3978477";
"Genova";"GENOVA";"Liguria";"Genova Voltri";"2015";"2015-11-03T10:07:32Z";"244415566";"8.7583625";"44.4284524999999";
"Lavagna";"GENOVA";"Liguria";"Cavi";"2013";"2013-11-01T05:40:57Z";"266986153";"9.3724997";"44.2935116";
"Lavagna";"GENOVA";"Liguria";"Lavagna";"2013";"2013-11-05T12:48:14Z";"249484669";"9.34637629999999";"44.3056315999999";
"Mele";"GENOVA";"Liguria";"Mele";"2016";"2016-02-12T10:16:35Z";"169477145";"8.7339369";"44.4727499999999";
"Pieve Ligure";"GENOVA";"Liguria";"Pieve Ligure";"2013";"2013-11-05T12:48:14Z";"2154756451";"9.09085999999999";"44.3725647999999";
"Pieve Ligure";"GENOVA";"Liguria";"Pontetto";"2013";"2013-11-05T12:48:14Z";"38679389";"9.0770114";"44.3772279";
"Rapallo";"GENOVA";"Liguria";"Rapallo";"2013";"2013-11-05T12:48:15Z";"82739131";"9.2315983";"44.3512623";
"Recco";"GENOVA";"Liguria";"Mulinetti";"2013";"2013-11-05T12:48:14Z";"96082187";"9.1302945";"44.3622433999999";
"Recco";"GENOVA";"Liguria";"Recco";"2013";"2013-11-05T12:48:15Z";"47137986";"9.14669529999999";"44.3611077999999";
"Ronco Scrivia";"GENOVA";"Liguria";"Ronco Scrivia";"2015";"2015-03-17T14:38:20Z";"224607916";"8.9492897";"44.6144564";
"Rossiglione";"GENOVA";"Liguria";"Rossiglione";"2016";"2016-02-11T11:11:29Z";"317405389";"8.6679788";"44.5676944";
"Santa Margherita Ligure";"GENOVA";"Liguria";"Santa Margherita Ligure - Portofino";"2013";"2013-11-05T12:53:13Z";"110039649";"9.2168201";"44.3366946";
"Sant'Olcese";"GENOVA";"Liguria";"Busalletta";"2011";"2011-05-31T20:59:08Z";"183669568";"8.9887339";"44.4971253";
"Sant'Olcese";"GENOVA";"Liguria";"Campi";"2012";"2012-07-03T21:42:22Z";"169674009";"8.9556851";"44.4644833999999";
"Sant'Olcese";"GENOVA";"Liguria";"Pino";"2011";"2011-06-02T09:55:42Z";"180719988";"8.95954339999999";"44.4684363";
"Sant'Olcese";"GENOVA";"Liguria";"Sardorella";"2011";"2011-05-31T20:59:00Z";"180720107";"8.9812341";"44.4840002999999";
"Sant'Olcese";"GENOVA";"Liguria";"Torrazza";"2012";"2012-08-16T10:04:10Z";"180720002";"8.9619132";"44.4742077";
"Sant'Olcese";"GENOVA";"Liguria";"Vicomorasso";"2011";"2011-05-31T20:59:05Z";"180720113";"8.9772136";"44.4856739";
"Serra Ricco'";"GENOVA";"Liguria";"Piano Orizzontale dei Giovi";"2016";"2016-01-15T10:22:45Z";"3947638432";"8.9195627";"44.5310914";
"Sestri Levante";"GENOVA";"Liguria";"Riva Trigoso";"2011";"2011-05-21T23:15:06Z";"280182437";"9.4291983";"44.2638401";
"Sestri Levante";"GENOVA";"Liguria";"Riva Trigoso";"2013";"2013-11-05T12:55:40Z";"2515903548";"9.4291983";"44.2638401";
"Sestri Levante";"GENOVA";"Liguria";"Sestri Levante";"2014";"2014-05-17T15:03:56Z";"216004495";"9.3976141";"44.2762644";
"Sori";"GENOVA";"Liguria";"Sori";"2013";"2013-11-05T12:48:15Z";"104586117";"9.1061163";"44.3695302";
"Zoagli";"GENOVA";"Liguria";"Zoagli";"2013";"2013-11-05T12:53:14Z";"130004035";"9.2691807";"44.3353928";
"Zoagli";"GENOVA";"Liguria";"Zoagli";"2013";"2013-11-05T12:53:14Z";"2154756453";"9.2691453";"44.3353354999999";
"Bonassola";"LA SPEZIA";"Liguria";"Bonassola";"2015";"2015-06-06T18:20:30Z";"279255770";"9.58270349999999";"44.1849017999999";
"Framura";"LA SPEZIA";"Liguria";"Framura";"2013";"2013-11-01T05:38:14Z";"2257458139";"9.5553978";"44.2018727999999";
"La Spezia";"LA SPEZIA";"Liguria";"Cà dei Boschetti";"2013";"2013-11-07T07:37:47Z";"1262137191";"9.8641215";"44.1182976999999";
"La Spezia";"LA SPEZIA";"Liguria";"La Spezia Centrale";"2015";"2015-10-04T12:14:42Z";"1262114259";"9.8135907";"44.1116006";
"Riomaggiore";"LA SPEZIA";"Liguria";"Manarola";"2013";"2013-11-07T07:37:48Z";"305994253";"9.729303";"44.1048984999999";
"Sarzana";"LA SPEZIA";"Liguria";"Sarzana";"2013";"2013-11-01T06:10:15Z";"1265732350";"9.9604626";"44.1091029999999";
"Vezzano Ligure";"LA SPEZIA";"Liguria";"Vezzano Ligure";"2014";"2014-11-26T18:20:56Z";"1835537432";"9.8898536";"44.1274232";
"Albizzate";"VARESE";"Lombardia";"Albizzate-Solbiate Arno";"2013";"2013-02-28T13:36:59Z";"793765658";"8.8062558";"45.7232694";
"Arcisate";"VARESE";"Lombardia";"Arcisate";"2015";"2015-03-29T20:20:28Z";"679149458";"8.8624933";"45.85864";
"Barasso";"VARESE";"Lombardia";"Barasso-Comerio";"2015";"2015-02-11T11:23:49Z";"263699903";"8.7508516";"45.8352404999999";
"Besozzo";"VARESE";"Lombardia";"Besozzo";"2014";"2014-01-11T21:40:46Z";"2146659315";"8.662997";"45.8422318";
"Biandronno";"VARESE";"Lombardia";"Travedona-Biandronno";"2013";"2013-12-26T16:00:32Z";"2066538237";"8.6963411";"45.8096176";
"Bisuschio";"VARESE";"Lombardia";"Bisuschio?Viggiù";"2010";"2010-03-31T14:28:02Z";"679149468";"8.88756049999999";"45.8707099";
"Busto Arsizio";"VARESE";"Lombardia";"Busto Arsizio Nord";"2015";"2015-03-08T15:50:44Z";"335854978";"8.8514236";"45.6060207";
"Busto Arsizio";"VARESE";"Lombardia";"Castellanza";"2015";"2015-01-05T20:36:08Z";"1127675459";"8.8755723";"45.6105256";
"Castronno";"VARESE";"Lombardia";"Castronno";"2013";"2013-05-30T21:10:46Z";"251035175";"8.8103576";"45.745251";
"Cavaria con Premezzo";"VARESE";"Lombardia";"Cavaria-Oggiona-Jerago";"2013";"2013-05-28T21:10:59Z";"251035138";"8.80354359999999";"45.6982746999999";
"Cislago";"VARESE";"Lombardia";"Cislago";"2015";"2015-08-17T11:26:01Z";"142409819";"8.9776466";"45.6610678999999";
"Cittiglio";"VARESE";"Lombardia";"Cittiglio";"2014";"2014-06-28T17:47:43Z";"263699984";"8.6672217";"45.8925264";
"Cocquio-Trevisago";"VARESE";"Lombardia";"Cocquio-Trevisago";"2015";"2015-02-11T11:25:11Z";"263699947";"8.69004649999999";"45.8601262";
"Ferno";"VARESE";"Lombardia";"Ferno - Lonate Pozzolo";"2015";"2015-11-28T15:40:34Z";"1798211175";"8.7552737";"45.6085874999999";
"Ferno";"VARESE";"Lombardia";"Malpensa";"2015";"2015-05-05T09:52:56Z";"254419996";"8.711334";"45.627043";
"Gallarate";"VARESE";"Lombardia";"Gallarate";"2013";"2013-12-21T13:19:25Z";"251033595";"8.798342";"45.6597767";
"Gazzada Schianno";"VARESE";"Lombardia";"Gazzada-Schianno-Morazzone";"2013";"2013-05-31T15:53:14Z";"793765655";"8.825005";"45.7785842999999";
"Induno Olona";"VARESE";"Lombardia";"Induno Olona";"2015";"2015-03-29T20:20:29Z";"679149528";"8.8383708";"45.8464209999999";
"Ispra";"VARESE";"Lombardia";"Ispra";"2012";"2012-10-17T09:32:15Z";"266674118";"8.6212829";"45.8116379";
"Laveno-Mombello";"VARESE";"Lombardia";"Laveno-Mombello";"2014";"2014-03-08T16:08:55Z";"1354257860";"8.6246253";"45.9032259";
"Laveno-Mombello";"VARESE";"Lombardia";"Laveno-Mombello Nord";"2015";"2015-02-11T11:26:08Z";"2022816197";"8.61866979999999";"45.9083012999999";
"Luino";"VARESE";"Lombardia";"Luino";"2011";"2011-12-17T15:08:37Z";"302392062";"8.7375217";"45.9966298";
"Malnate";"VARESE";"Lombardia";"Malnate";"2013";"2013-07-20T10:50:26Z";"119339589";"8.8782314";"45.7953249999999";
"Mornago";"VARESE";"Lombardia";"Mornago-Cimbro";"2014";"2014-03-08T15:44:50Z";"2707076063";"8.7343091";"45.7297966";
"Porto Ceresio";"VARESE";"Lombardia";"Porto Ceresio";"2014";"2014-08-03T16:45:24Z";"1327346304";"8.9002962";"45.9036582";
"Porto Valtravaglia";"VARESE";"Lombardia";"Porto Valtravaglia";"2014";"2014-03-08T16:14:58Z";"431291871";"8.6740835";"45.9582939";
"Saronno";"VARESE";"Lombardia";"Saronno";"2015";"2015-09-23T22:08:05Z";"142409828";"9.03050539999999";"45.6253305999999";
"Sesto Calende";"VARESE";"Lombardia";"Sesto Calende";"2015";"2015-02-12T17:21:47Z";"2522022643";"8.6284271";"45.726081";
"Somma Lombardo";"VARESE";"Lombardia";"Somma Lombardo";"2013";"2013-09-16T20:26:19Z";"288508074";"8.7129683";"45.6864502999999";
"Ternate";"VARESE";"Lombardia";"Ternate - Varano Borghi";"2014";"2014-01-22T16:53:35Z";"2066401420";"8.7005165";"45.7818371999999";
"Tradate";"VARESE";"Lombardia";"Tradate";"2015";"2015-02-11T11:19:13Z";"3343700937";"8.9068707";"45.7103447";
"Varese";"VARESE";"Lombardia";"Sacro Monte";"2013";"2013-05-08T08:56:46Z";"1058717854";"8.7909289";"45.8607723";
"Varese";"VARESE";"Lombardia";"Varese";"2013";"2013-05-31T16:37:02Z";"251035239";"8.83316819999999";"45.8161345999999";
"Varese";"VARESE";"Lombardia";"Varese-Casbeno";"2015";"2015-02-11T11:21:59Z";"263691402";"8.8114266";"45.8148746999999";
"Varese";"VARESE";"Lombardia";"Varese Nord";"2015";"2015-02-11T11:21:27Z";"119339305";"8.8335661";"45.8182418";
"Varese";"VARESE";"Lombardia";"Vellone";"2014";"2014-12-28T08:21:06Z";"384729018";"8.7878";"45.8584241";
"MACCAGNO CON PINO E VEDDASCA";"VARESE";"Lombardia";"Maccagno";"2014";"2014-03-08T16:22:59Z";"302392144";"8.7374398";"46.0432337";
"MACCAGNO CON PINO E VEDDASCA";"VARESE";"Lombardia";"Pino-Tronzano";"2013";"2013-09-18T19:46:59Z";"302392329";"8.7368557";"46.0986408999999";
"Anzano del Parco";"COMO";"Lombardia";"Anzano del Parco";"2014";"2014-02-19T11:17:20Z";"1483301126";"9.2026693";"45.7649651999999";
"Arosio";"COMO";"Lombardia";"Arosio";"2014";"2014-02-19T20:00:17Z";"2680515601";"9.2102619";"45.7183150999999";
"Brunate";"COMO";"Lombardia";"Brunate";"2014";"2014-09-24T15:25:43Z";"420807511";"9.09535329999999";"45.8188245999999";
"Cabiate";"COMO";"Lombardia";"Cabiate";"2015";"2015-10-16T16:05:34Z";"346360056";"9.16855969999999";"45.6759078999999";
"Canzo";"COMO";"Lombardia";"Canzo-Asso";"2015";"2015-03-08T16:43:18Z";"1373128060";"9.2693226";"45.8548066999999";
"Carimate";"COMO";"Lombardia";"Carimate";"2015";"2015-03-12T11:16:59Z";"534611818";"9.1073774";"45.6970488999999";
"Como";"COMO";"Lombardia";"Albate-Camerlata";"2014";"2014-11-30T09:41:34Z";"3212106955";"9.07308229999999";"45.7768644";
"Como";"COMO";"Lombardia";"Como";"2014";"2014-09-24T15:25:43Z";"338441801";"9.08285369999999";"45.8176942999999";
"Como";"COMO";"Lombardia";"Como Alta";"2014";"2014-09-24T15:25:43Z";"672417446";"9.08720409999999";"45.81824";
"Como";"COMO";"Lombardia";"Como Nord Borghi";"2015";"2015-07-20T18:57:23Z";"273430488";"9.0909463";"45.8049801";
"Como";"COMO";"Lombardia";"Como Nord Camerlata";"2015";"2015-03-08T16:24:28Z";"3212140241";"9.07945499999999";"45.7844993";
"Como";"COMO";"Lombardia";"Como Nord Lago";"2015";"2015-03-08T16:25:35Z";"1817672073";"9.0840647";"45.8141056999999";
"Como";"COMO";"Lombardia";"Como San Giovanni";"2013";"2013-06-07T21:33:29Z";"248861262";"9.072689";"45.8088285999999";
"Erba";"COMO";"Lombardia";"Erba";"2014";"2014-02-19T12:14:49Z";"365397132";"9.23027169999999";"45.8132024";
"Fino Mornasco";"COMO";"Lombardia";"Fino Mornasco";"2014";"2014-02-19T12:16:12Z";"255588968";"9.0470823";"45.746578";
"Inverigo";"COMO";"Lombardia";"Inverigo";"2014";"2014-02-19T12:21:01Z";"933248063";"9.22447279999999";"45.7403142";
"Mariano Comense";"COMO";"Lombardia";"Mariano Comense";"2014";"2014-02-19T12:29:23Z";"289113701";"9.18153249999999";"45.6935415";
"Merone";"COMO";"Lombardia";"Merone";"2014";"2014-02-19T12:30:53Z";"614237419";"9.2432779";"45.7803553999999";
"Ardenno";"SONDRIO";"Lombardia";"Ardenno-Masino";"2013";"2013-09-20T15:10:43Z";"2042665159";"9.6505709";"46.1616572";
"Berbenno di Valtellina";"SONDRIO";"Lombardia";"San Pietro Berbenno";"2015";"2015-05-11T21:38:12Z";"3511165362";"9.7405205";"46.1613644999999";
"Castione Andevenno";"SONDRIO";"Lombardia";"Castione Andevenno";"2015";"2015-05-11T21:38:13Z";"1630469899";"9.8080555";"46.1616219";
"Chiavenna";"SONDRIO";"Lombardia";"Chiavenna";"2015";"2015-05-11T21:38:13Z";"2252495326";"9.4050242";"46.3195443999999";
"Chiuro";"SONDRIO";"Lombardia";"Ponte in Valtellina";"2013";"2013-09-20T15:10:45Z";"299592149";"9.97624519999999";"46.1626868999999";
"Cosio Valtellino";"SONDRIO";"Lombardia";"Cosio-Traona";"2014";"2014-08-12T15:54:41Z";"2835640643";"9.5255276";"46.1355719";
"Delebio";"SONDRIO";"Lombardia";"Delebio";"2014";"2014-12-07T12:11:18Z";"2042700246";"9.461268";"46.1386358999999";
"Morbegno";"SONDRIO";"Lombardia";"Morbegno";"2015";"2015-08-07T13:50:43Z";"2042679066";"9.5686347";"46.1366459999999";
"Novate Mezzola";"SONDRIO";"Lombardia";"Novate Mezzola";"2015";"2015-05-11T21:38:13Z";"2042739102";"9.4465406";"46.2166791";
"Sondrio";"SONDRIO";"Lombardia";"Sondrio";"2014";"2014-12-16T10:40:44Z";"299592048";"9.87293659999999";"46.1670452999999";
"Teglio";"SONDRIO";"Lombardia";"Tresenda-Aprica-Teglio";"2014";"2014-12-07T12:24:44Z";"2041162963";"10.0837077";"46.1620594999999";
"Tirano";"SONDRIO";"Lombardia";"Tirano RFI";"2014";"2014-07-12T16:06:35Z";"2046003036";"10.1670067";"46.2153680999999";
"Tirano";"SONDRIO";"Lombardia";"Tirano RhB";"2014";"2014-07-12T16:06:35Z";"298165903";"10.1664014999999";"46.2157631999999";
"Abbiategrasso";"MILANO";"Lombardia";"Abbiategrasso";"2013";"2013-12-24T18:54:45Z";"249753761";"8.9205948";"45.3975857";
"Albairate";"MILANO";"Lombardia";"Albairate-Vermezzo";"2014";"2014-03-01T20:35:19Z";"602835056";"8.95818839999999";"45.4044969999999";
"Assago";"MILANO";"Lombardia";"Assago Milanofiori Forum";"2014";"2014-01-11T21:30:19Z";"1164736020";"9.1455388";"45.4017484999999";
"Assago";"MILANO";"Lombardia";"Assago Milanofiori Nord";"2014";"2014-11-21T16:29:24Z";"1164734238";"9.1500463";"45.4094545";
"Cassano d'Adda";"MILANO";"Lombardia";"Cassano d?Adda";"2015";"2015-02-09T21:52:04Z";"262418123";"9.5128004";"45.5143496";
"Castano Primo";"MILANO";"Lombardia";"Castano Primo";"2013";"2013-08-16T18:06:35Z";"659018974";"8.7726715";"45.5560979999999";
"Cernusco sul Naviglio";"MILANO";"Lombardia";"Cernusco sul Naviglio";"2014";"2014-07-05T16:02:06Z";"2192464898";"9.3316561";"45.5209928";
"Cesano Boscone";"MILANO";"Lombardia";"Cesano Boscone";"2015";"2015-05-01T09:47:30Z";"605249633";"9.091412";"45.4302897";
"Cologno Monzese";"MILANO";"Lombardia";"Cologno Centro";"2014";"2014-07-05T16:02:06Z";"340494761";"9.2829642";"45.5274781999999";
"Cologno Monzese";"MILANO";"Lombardia";"Cologno Nord";"2011";"2011-11-11T17:58:55Z";"340493077";"9.2910941";"45.5343027999999";
"Cologno Monzese";"MILANO";"Lombardia";"Cologno Sud";"2014";"2014-07-05T16:02:07Z";"1916755348";"9.27492709999999";"45.5202130999999";
"Cologno Monzese";"MILANO";"Lombardia";"Cologno Sud";"2014";"2014-07-05T16:02:07Z";"340493839";"9.2749653";"45.5201941999999";
"Garbagnate Milanese";"MILANO";"Lombardia";"Garbagnate Milanese";"2013";"2013-08-14T08:32:43Z";"628083441";"9.0802087";"45.5799809999999";
"Gessate";"MILANO";"Lombardia";"Gessate";"2014";"2014-05-25T09:59:44Z";"2879577941";"9.43666359999999";"45.5452628999999";
"Gorgonzola";"MILANO";"Lombardia";"Gorgonzola";"2013";"2013-04-30T19:33:15Z";"257553064";"9.40345409999999";"45.5367409999999";
"Legnano";"MILANO";"Lombardia";"Legnano";"2012";"2012-12-12T17:56:54Z";"251033690";"8.9107467";"45.5936100999999";
"Locate di Triulzi";"MILANO";"Lombardia";"Locate Triulzi";"2015";"2015-07-14T19:03:03Z";"3598750404";"9.2214693";"45.3597431999999";
"Magenta";"MILANO";"Lombardia";"Magenta";"2015";"2015-04-29T14:18:34Z";"2329302741";"8.8807221";"45.4682310999999";
"Melegnano";"MILANO";"Lombardia";"Melegnano";"2015";"2015-02-07T16:36:36Z";"1033165175";"9.319283";"45.3564404999999";
"Melzo";"MILANO";"Lombardia";"Melzo Scalo";"2015";"2015-02-09T21:49:43Z";"3340718380";"9.4082095";"45.5001779999999";
"Milano";"MILANO";"Lombardia";"Affori Centro";"2014";"2014-04-13T16:45:17Z";"1029570927";"9.1739799";"45.5135543";
"Milano";"MILANO";"Lombardia";"Affori FN";"2014";"2014-12-02T20:30:53Z";"3216465538";"9.1682516";"45.5216818";
"Milano";"MILANO";"Lombardia";"Affori FN";"2014";"2014-12-02T20:30:57Z";"1277834213";"9.1682259";"45.5216727999999";
"Milano";"MILANO";"Lombardia";"Amendola";"2014";"2014-07-03T13:42:06Z";"21226123";"9.1509693";"45.4736789";
"Milano";"MILANO";"Lombardia";"Bande Nere";"2014";"2014-08-20T17:22:38Z";"21227207";"9.1364845";"45.4615039999999";
"Milano";"MILANO";"Lombardia";"Bicocca";"2014";"2014-01-11T21:36:53Z";"441118974";"9.2053699";"45.5147339";
"Milano";"MILANO";"Lombardia";"Bignami";"2014";"2014-02-02T19:35:07Z";"441118977";"9.2121805";"45.5267842";
"Milano";"MILANO";"Lombardia";"Bisceglie";"2014";"2014-08-20T17:22:38Z";"257678346";"9.11292549999999";"45.4553804";
"Milano";"MILANO";"Lombardia";"Bonola";"2013";"2013-12-26T15:16:43Z";"301102520";"9.1101478";"45.4970026";
"Milano";"MILANO";"Lombardia";"Brenta";"2014";"2014-07-01T11:37:22Z";"340474842";"9.2184814";"45.4428107";
"Milano";"MILANO";"Lombardia";"Buonarroti";"2014";"2014-08-13T21:01:05Z";"21227215";"9.15529229999999";"45.470402";
"Milano";"MILANO";"Lombardia";"Cadorna";"2014";"2014-12-16T09:05:31Z";"1272557583";"9.17642629999999";"45.4681952999999";
"Milano";"MILANO";"Lombardia";"Cadorna";"2014";"2014-12-16T09:05:31Z";"21306358";"9.1771024";"45.4681550999999";
"Milano";"MILANO";"Lombardia";"Ca' Granda - Pratocentenaro";"2014";"2014-01-18T21:09:42Z";"441118971";"9.2011103";"45.5072424999999";
"Milano";"MILANO";"Lombardia";"Caiazzo";"2014";"2014-07-01T17:57:46Z";"1725942573";"9.2094094";"45.4853182";
"Milano";"MILANO";"Lombardia";"Cairoli";"2015";"2015-11-13T13:17:47Z";"232864604";"9.1820748";"45.4683871";
"Milano";"MILANO";"Lombardia";"Cenisio";"2015";"2015-09-18T19:09:41Z";"674079900";"9.1722651";"45.4875645999999";
"Milano";"MILANO";"Lombardia";"Centrale FS";"2014";"2014-11-01T15:38:55Z";"91567650";"9.2026128";"45.4844397";
"Milano";"MILANO";"Lombardia";"Cimiano";"2016";"2016-01-30T19:53:32Z";"2631107193";"9.2414257";"45.5000415";
"Milano";"MILANO";"Lombardia";"Comasina";"2014";"2014-12-21T20:38:28Z";"441109566";"9.16372909999999";"45.5281325999999";
"Milano";"MILANO";"Lombardia";"Conciliazione";"2014";"2014-07-03T12:09:18Z";"21226008";"9.166487";"45.4675341";
"Milano";"MILANO";"Lombardia";"Cordusio";"2015";"2015-11-13T13:17:47Z";"232864605";"9.1862186";"45.4655320999999";
"Milano";"MILANO";"Lombardia";"Corvetto";"2014";"2014-07-01T11:37:22Z";"340061063";"9.2234695";"45.4404109";
"Milano";"MILANO";"Lombardia";"Crescenzago";"2015";"2015-03-03T15:46:34Z";"1916755350";"9.2481933";"45.5052543999999";
"Milano";"MILANO";"Lombardia";"Crocetta";"2014";"2014-07-01T11:37:21Z";"257898306";"9.1951034";"45.4565508";
"Milano";"MILANO";"Lombardia";"De Angeli";"2014";"2014-07-03T13:09:26Z";"21226111";"9.1495658";"45.4664306";
"Milano";"MILANO";"Lombardia";"Dergano";"2013";"2013-12-17T21:44:13Z";"441109563";"9.1796031";"45.5055369999999";
"Milano";"MILANO";"Lombardia";"Domodossola";"2016";"2016-01-09T10:53:59Z";"674079898";"9.161839";"45.4814814";
"Milano";"MILANO";"Lombardia";"Duomo";"2014";"2014-07-01T13:35:05Z";"257900140";"9.1896204";"45.4646259";
"Milano";"MILANO";"Lombardia";"Famagosta";"2015";"2015-01-17T14:08:52Z";"456344433";"9.1680126";"45.436895";
"Milano";"MILANO";"Lombardia";"Gambara";"2014";"2014-08-20T17:00:53Z";"21227049";"9.14302799999999";"45.4648962999999";
"Milano";"MILANO";"Lombardia";"Garibaldi FS";"2016";"2016-01-09T10:53:49Z";"3935647345";"9.1877897";"45.4836637";
"Milano";"MILANO";"Lombardia";"Garibaldi FS";"2016";"2016-01-09T10:54:00Z";"2344518511";"9.1867424";"45.4836396999999";
"Milano";"MILANO";"Lombardia";"Gerusalemme";"2016";"2016-01-09T10:54:00Z";"674079899";"9.166575";"45.4845225999999";
"Milano";"MILANO";"Lombardia";"Gioia";"2014";"2014-07-06T19:20:06Z";"91567648";"9.1948574";"45.4848999";
"Milano";"MILANO";"Lombardia";"Gorla";"2014";"2014-01-03T16:24:07Z";"270443358";"9.2227388";"45.5067342999999";
"Milano";"MILANO";"Lombardia";"Inganni";"2014";"2014-08-20T17:22:38Z";"29463264";"9.1222629";"45.457563";
"Milano";"MILANO";"Lombardia";"Isola";"2014";"2014-08-13T21:30:40Z";"441118965";"9.1912634";"45.4876082999999";
"Milano";"MILANO";"Lombardia";"Istria";"2014";"2014-08-13T22:17:57Z";"441118969";"9.19792";"45.5016261999999";
"Milano";"MILANO";"Lombardia";"Lambrate FS";"2015";"2015-02-28T20:29:45Z";"1746151180";"9.2348298";"45.4842475";
"Milano";"MILANO";"Lombardia";"Lampugnano";"2014";"2014-05-04T10:59:15Z";"301102111";"9.1273192";"45.4894017";
"Milano";"MILANO";"Lombardia";"Lanza";"2015";"2015-01-17T13:03:26Z";"21555749";"9.1825481";"45.4722294999999";
"Milano";"MILANO";"Lombardia";"Lima";"2014";"2014-01-26T17:33:18Z";"307809735";"9.2109827";"45.4803459";
"Milano";"MILANO";"Lombardia";"Lodi T.I.B.B.";"2015";"2015-10-16T09:33:56Z";"257898307";"9.2108164";"45.4467635999999";
"Milano";"MILANO";"Lombardia";"Loreto";"2014";"2014-07-03T11:11:27Z";"1725942582";"9.215166";"45.4845942999999";
"Milano";"MILANO";"Lombardia";"Lotto";"2014";"2014-07-03T13:42:06Z";"344550296";"9.14374879999999";"45.4791454";
"Milano";"MILANO";"Lombardia";"Lotto";"2016";"2016-01-09T10:54:01Z";"1209230604";"9.1436709";"45.4797743999999";
"Milano";"MILANO";"Lombardia";"M2 Cascina Gobba";"2015";"2015-10-03T20:13:56Z";"2356329672";"9.2606073";"45.5111641";
"Milano";"MILANO";"Lombardia";"Maciachini";"2013";"2013-12-17T21:44:14Z";"1737802638";"9.1850425";"45.4977017";
"Milano";"MILANO";"Lombardia";"Marche";"2014";"2014-08-13T22:17:57Z";"441118967";"9.19482359999999";"45.4961455999999";
"Milano";"MILANO";"Lombardia";"Milano Centrale";"2014";"2014-07-06T17:34:52Z";"1300682674";"9.2049959";"45.4870667";
"Milano";"MILANO";"Lombardia";"Milano Certosa";"2011";"2011-12-17T14:41:07Z";"705664733";"9.1358742";"45.5065110999999";
"Milano";"MILANO";"Lombardia";"Milano Dateo";"2015";"2015-05-01T09:47:31Z";"301621643";"9.217393";"45.4679";
"Milano";"MILANO";"Lombardia";"Milano Greco Pirelli";"2014";"2014-11-14T10:01:12Z";"30049024";"9.2145113";"45.5129325999999";
"Milano";"MILANO";"Lombardia";"Milano Lambrate";"2014";"2014-02-02T19:35:07Z";"169701311";"9.237351";"45.4849298999999";
"Milano";"MILANO";"Lombardia";"Milano Lancetti";"2014";"2014-03-17T20:07:37Z";"1606676479";"9.177711";"45.4933549";
"Milano";"MILANO";"Lombardia";"Milano Nord Affori";"2015";"2015-11-06T20:28:42Z";"3340769027";"9.1675114";"45.5215591999999";
"Milano";"MILANO";"Lombardia";"Milano Nord Bovisa";"2015";"2015-11-06T20:27:11Z";"1954713781";"9.1589535";"45.502411";
"Milano";"MILANO";"Lombardia";"Milano Nord Bruzzano";"2015";"2015-11-06T20:28:42Z";"3147139753";"9.1727618";"45.5336061";
"Milano";"MILANO";"Lombardia";"Milano Nord Cadorna";"2015";"2015-02-09T22:09:29Z";"21226369";"9.17529";"45.4685697";
"Milano";"MILANO";"Lombardia";"Milano Nord Domodossola";"2015";"2015-05-01T09:47:31Z";"27583968";"9.16226799999999";"45.4808759";
"Milano";"MILANO";"Lombardia";"Milano Nord Quarto Oggiaro";"2015";"2015-05-01T09:47:31Z";"714307672";"9.14537269999999";"45.5191815";
"Milano";"MILANO";"Lombardia";"Milano Porta Garibaldi";"2012";"2012-08-04T13:34:41Z";"29797363";"9.1872983";"45.4844415999999";
"Milano";"MILANO";"Lombardia";"Milano Porta Garibaldi Passante";"2014";"2014-03-17T20:07:37Z";"2344518513";"9.1864762";"45.4840161999999";
"Milano";"MILANO";"Lombardia";"Milano Porta Genova";"2014";"2014-04-13T16:48:49Z";"335443676";"9.1691792";"45.4530711999999";
"Milano";"MILANO";"Lombardia";"Milano Porta Romana";"2012";"2012-03-27T05:38:31Z";"1277742478";"9.2137861";"45.4459172999999";
"Milano";"MILANO";"Lombardia";"Milano Porta Vittoria";"2014";"2014-01-10T17:02:23Z";"301621633";"9.2240055";"45.4594814";
"Milano";"MILANO";"Lombardia";"Milano Rogoredo";"2015";"2015-12-02T09:41:39Z";"30064566";"9.23907299999999";"45.4336401999999";
"Milano";"MILANO";"Lombardia";"Milano Romolo";"2015";"2015-05-01T09:47:31Z";"432845443";"9.16769019999999";"45.4432578999999";
"Milano";"MILANO";"Lombardia";"Milano San Cristoforo";"2012";"2012-08-27T09:36:20Z";"30047264";"9.1301041";"45.4423694999999";
"Milano";"MILANO";"Lombardia";"Missori";"2014";"2014-07-01T22:49:49Z";"257900139";"9.1890271";"45.4601085999999";
"Milano";"MILANO";"Lombardia";"Molino Dorino";"2014";"2014-07-04T15:40:15Z";"344551806";"9.0929661";"45.5052116";
"Milano";"MILANO";"Lombardia";"Montenapoleone";"2015";"2015-12-05T10:49:43Z";"257900141";"9.1928479";"45.4700054999999";
"Milano";"MILANO";"Lombardia";"Monumentale";"2015";"2015-10-12T13:13:42Z";"674079901";"9.1804612";"45.4851595";
"Milano";"MILANO";"Lombardia";"Moscova";"2014";"2014-07-03T11:46:23Z";"1725740868";"9.1844757";"45.4774395";
"Milano";"MILANO";"Lombardia";"Pagano";"2014";"2014-07-03T13:09:26Z";"21226654";"9.1610952";"45.4682808";
"Milano";"MILANO";"Lombardia";"Palestro";"2014";"2014-07-03T11:24:59Z";"307809395";"9.201949";"45.471425";
"Milano";"MILANO";"Lombardia";"Pasteur";"2014";"2014-07-03T11:16:43Z";"267034934";"9.2181801";"45.4910691999999";
"Milano";"MILANO";"Lombardia";"Piazza Abbiategrasso";"2015";"2015-10-16T09:33:57Z";"1739767077";"9.1773228";"45.4299948999999";
"Milano";"MILANO";"Lombardia";"Piola";"2015";"2015-02-28T20:30:56Z";"1722078727";"9.2259168";"45.4811449999999";
"Milano";"MILANO";"Lombardia";"Ponale";"2014";"2014-01-26T17:46:15Z";"441118976";"9.2094736";"45.5219944999999";
"Milano";"MILANO";"Lombardia";"Porta Genova FS";"2014";"2014-07-04T16:22:13Z";"1739767084";"9.16960609999999";"45.4523781999999";
"Milano";"MILANO";"Lombardia";"Porta Romana";"2014";"2014-07-01T11:37:21Z";"257898305";"9.2034002";"45.4514341";
"Milano";"MILANO";"Lombardia";"Porta Venezia";"2015";"2015-10-03T20:00:20Z";"2769889807";"9.2050464";"45.4744187";
"Milano";"MILANO";"Lombardia";"Portello";"2016";"2016-01-09T10:54:02Z";"3001245476";"9.1507235";"45.4813845999999";
"Milano";"MILANO";"Lombardia";"Porto di Mare";"2014";"2014-07-01T11:37:21Z";"340060545";"9.2303111";"45.4371279";
"Milano";"MILANO";"Lombardia";"Precotto";"2014";"2014-02-16T13:17:36Z";"270443359";"9.22449909999999";"45.5120294999999";
"Milano";"MILANO";"Lombardia";"Primaticcio";"2014";"2014-08-20T17:22:38Z";"27555351";"9.1292597";"45.4594135999999";
"Milano";"MILANO";"Lombardia";"QT8";"2014";"2014-02-16T13:20:44Z";"344550581";"9.13718229999999";"45.4859580999999";
"Milano";"MILANO";"Lombardia";"Repubblica";"2014";"2014-07-06T17:22:11Z";"2344518514";"9.1988564";"45.4800895999999";
"Milano";"MILANO";"Lombardia";"Rogoredo";"2015";"2015-12-10T10:27:57Z";"340059424";"9.2380891";"45.4335862";
"Milano";"MILANO";"Lombardia";"Romolo";"2014";"2014-07-04T16:22:13Z";"1759883432";"9.1676768";"45.4437332999999";
"Milano";"MILANO";"Lombardia";"Rovereto";"2016";"2016-01-27T16:21:51Z";"295548092";"9.2195058";"45.4955331";
"Milano";"MILANO";"Lombardia";"San Babila";"2014";"2014-07-08T09:29:28Z";"307809391";"9.1975286";"45.4665213999999";
"Milano";"MILANO";"Lombardia";"San Donato";"2014";"2014-07-01T21:34:17Z";"318013353";"9.2562339";"45.4292063999999";
"Milano";"MILANO";"Lombardia";"San Leonardo";"2014";"2014-07-04T15:40:15Z";"301102639";"9.1014812";"45.5011555";
"Milano";"MILANO";"Lombardia";"San Siro Ippodromo";"2016";"2016-01-09T10:54:02Z";"992935276";"9.1290346";"45.4761385999999";
"Milano";"MILANO";"Lombardia";"San Siro Stadio";"2016";"2016-01-09T10:54:03Z";"992935284";"9.1183537";"45.4762544";
"Milano";"MILANO";"Lombardia";"Sant'Agostino";"2014";"2014-07-03T09:12:33Z";"1739767086";"9.1698144";"45.4586200999999";
"Milano";"MILANO";"Lombardia";"Sant'Ambrogio";"2014";"2014-07-02T23:01:52Z";"21555708";"9.173168";"45.4616238999999";
"Milano";"MILANO";"Lombardia";"Segesta";"2016";"2016-01-09T10:54:04Z";"992935273";"9.1378927";"45.4763229";
"Milano";"MILANO";"Lombardia";"Sondrio";"2014";"2014-07-01T09:24:09Z";"1737802639";"9.2005584";"45.4899902";
"Milano";"MILANO";"Lombardia";"Tre Torri";"2016";"2016-01-09T10:54:04Z";"992935286";"9.1567015";"45.4781167";
"Milano";"MILANO";"Lombardia";"Turati";"2014";"2014-07-06T17:15:57Z";"257900143";"9.19470669999999";"45.4750407";
"Milano";"MILANO";"Lombardia";"Turro";"2015";"2015-02-28T20:23:22Z";"434849658";"9.2210047";"45.5004454999999";
"Milano";"MILANO";"Lombardia";"Udine";"2014";"2014-07-07T09:27:21Z";"249586436";"9.2369964";"45.4912044";
"Milano";"MILANO";"Lombardia";"Uruguay";"2014";"2014-01-26T17:42:51Z";"301102148";"9.1205459";"45.4937169";
"Milano";"MILANO";"Lombardia";"Villa San Giovanni";"2014";"2014-02-16T13:17:37Z";"317997619";"9.2261302";"45.5174544999999";
"Milano";"MILANO";"Lombardia";"Wagner";"2014";"2014-08-13T21:01:05Z";"21225838";"9.1559144";"45.4679501";
"Milano";"MILANO";"Lombardia";"Zara";"2014";"2014-08-13T21:18:55Z";"1737802640";"9.19260109999999";"45.4926644";
"Novate Milanese";"MILANO";"Lombardia";"Novate Milanese";"2014";"2014-04-28T20:49:24Z";"634354261";"9.1328186";"45.5331671";
"Paderno Dugnano";"MILANO";"Lombardia";"Palazzolo Milanese";"2011";"2011-12-09T12:27:29Z";"656441514";"9.156544";"45.5809934999999";
"Parabiago";"MILANO";"Lombardia";"Parabiago";"2015";"2015-04-10T17:04:37Z";"917772974";"8.9462554";"45.5524406999999";
"Pero";"MILANO";"Lombardia";"Pero";"2015";"2015-05-08T17:10:11Z";"791819611";"9.08552429999999";"45.5087345";
"Pioltello";"MILANO";"Lombardia";"Pioltello-Limito";"2014";"2014-04-13T14:37:36Z";"295891588";"9.3290224";"45.4859257999999";
"Rescaldina";"MILANO";"Lombardia";"Rescaldina";"2014";"2014-03-02T19:00:21Z";"1307541951";"8.9466397";"45.6221913999999";
"Rho";"MILANO";"Lombardia";"Rho";"2015";"2015-04-29T14:18:35Z";"30064437";"9.0437554";"45.5239371999999";
"Rho";"MILANO";"Lombardia";"Rho Fiera";"2015";"2015-12-18T17:26:28Z";"775293934";"9.0885367";"45.5211273";
"Rho";"MILANO";"Lombardia";"Rho-Fiera";"2015";"2015-05-04T08:09:44Z";"344552615";"9.0873494";"45.5198024";
"Segrate";"MILANO";"Lombardia";"Segrate";"2016";"2016-01-19T17:02:43Z";"3955464052";"9.298519";"45.4808359999999";
"Sesto San Giovanni";"MILANO";"Lombardia";"Sesto 1° Maggio F.S.";"2015";"2015-09-26T05:45:13Z";"256384526";"9.2383334";"45.5416912";
"Sesto San Giovanni";"MILANO";"Lombardia";"Sesto Marelli";"2014";"2014-02-02T19:35:07Z";"302941608";"9.22796149999999";"45.5234771";
"Sesto San Giovanni";"MILANO";"Lombardia";"Sesto Rondò";"2014";"2014-06-06T15:11:27Z";"256380164";"9.2312458";"45.5341592999999";
"Sesto San Giovanni";"MILANO";"Lombardia";"Sesto San Giovanni";"2011";"2011-05-25T19:04:51Z";"256382978";"9.2390969";"45.5410589";
"Turbigo";"MILANO";"Lombardia";"Turbigo";"2013";"2013-05-31T15:16:57Z";"2327270466";"8.738922";"45.5280885999999";
"Vanzago";"MILANO";"Lombardia";"Vanzago-Pogliano";"2012";"2012-09-07T13:23:43Z";"793765652";"8.9956459";"45.5252899999999";
"Vimodrone";"MILANO";"Lombardia";"Vimodrone";"2014";"2014-01-11T21:32:00Z";"257553602";"9.2859891";"45.5157833";
"Vittuone";"MILANO";"Lombardia";"Vittuone-Arluno";"2015";"2015-04-29T14:18:35Z";"337532584";"8.9472378";"45.4909966999999";
"Vanzaghello";"MILANO";"Lombardia";"Vanzaghello-Magnago";"2015";"2015-03-10T21:18:45Z";"1363110990";"8.7876296";"45.5777439";
"Ambivere";"BERGAMO";"Lombardia";"Ambivere-Mapello";"2014";"2014-02-19T19:46:57Z";"2681120433";"9.5504753";"45.7221987";
"Bergamo";"BERGAMO";"Lombardia";"Bergamo";"2015";"2015-01-31T19:17:20Z";"194466359";"9.6751551";"45.6903168999999";
"Bergamo";"BERGAMO";"Lombardia";"Stazione inferiore";"2015";"2015-12-04T06:57:14Z";"344334716";"9.6574752";"45.7064902999999";
"Bergamo";"BERGAMO";"Lombardia";"Stazione Inferiore";"2015";"2015-12-04T06:57:13Z";"3073802932";"9.66514379999999";"45.7010040999999";
"Bergamo";"BERGAMO";"Lombardia";"Stazione superiore";"2015";"2015-12-04T06:57:14Z";"344334724";"9.6507456";"45.7083305";
"Bergamo";"BERGAMO";"Lombardia";"Stazione Superiore";"2015";"2015-12-04T06:57:13Z";"3073802931";"9.6653262";"45.7029167";
"Bergamo";"BERGAMO";"Lombardia";"Stazione Superiore";"2015";"2015-12-04T06:57:13Z";"3073806633";"9.6652269";"45.7028605";
"Calusco d'Adda";"BERGAMO";"Lombardia";"Calusco";"2015";"2015-03-11T23:09:03Z";"387434290";"9.4707917";"45.6841389";
"Capriate San Gervasio";"BERGAMO";"Lombardia";"";"2015";"2015-03-29T12:20:08Z";"3424646976";"9.5386477";"45.6039566999999";
"Capriate San Gervasio";"BERGAMO";"Lombardia";"";"2015";"2015-03-29T12:20:09Z";"3424648067";"9.538778";"45.6042478999999";
"Capriate San Gervasio";"BERGAMO";"Lombardia";"Monorotaia";"2015";"2015-03-29T12:20:21Z";"3424496104";"9.5401025";"45.6048278";
"Caravaggio";"BERGAMO";"Lombardia";"Caravaggio";"2013";"2013-12-25T20:28:50Z";"451753193";"9.63773409999999";"45.4911624";
"Caravaggio";"BERGAMO";"Lombardia";"Vidalengo";"2014";"2014-04-19T15:28:19Z";"1943950992";"9.6397511";"45.5178196";
"Cisano Bergamasco";"BERGAMO";"Lombardia";"Cisano-Caprino Bergamasco";"2015";"2015-03-11T23:10:27Z";"491235959";"9.4743113";"45.7395714";
"Grumello del Monte";"BERGAMO";"Lombardia";"Grumello del Monte";"2015";"2015-03-02T20:20:50Z";"688744281";"9.8627798";"45.6341717999999";
"Montello";"BERGAMO";"Lombardia";"Montello-Gorlago";"2014";"2014-11-01T16:06:58Z";"646623640";"9.80849519999999";"45.6702093";
"Ponte San Pietro";"BERGAMO";"Lombardia";"Ponte San Pietro";"2014";"2014-02-19T19:51:08Z";"337421659";"9.5843503";"45.6991733999999";
"Romano di Lombardia";"BERGAMO";"Lombardia";"Romano";"2014";"2014-04-19T15:53:18Z";"295856262";"9.7534361";"45.5237894999999";
"Seriate";"BERGAMO";"Lombardia";"Seriate";"2014";"2014-02-19T19:52:30Z";"368502174";"9.72463149999999";"45.6831733";
"Terno d'Isola";"BERGAMO";"Lombardia";"Terno";"2015";"2015-03-11T23:09:37Z";"387434289";"9.53616519999999";"45.6886608";
"Treviglio";"BERGAMO";"Lombardia";"Treviglio";"2015";"2015-02-09T21:42:03Z";"3340704629";"9.58870789999999";"45.5150956";
"Verdellino";"BERGAMO";"Lombardia";"Verdello-Dalmine";"2015";"2015-01-31T20:30:27Z";"813778487";"9.61984359999999";"45.6057338999999";
"Bagnolo Mella";"BRESCIA";"Lombardia";"Bagnolo Mella";"2013";"2013-12-25T16:21:14Z";"628077251";"10.1836172";"45.4284103999999";
"Breno";"BRESCIA";"Lombardia";"Breno";"2012";"2012-10-17T16:27:52Z";"312263507";"10.3054985";"45.9592220999999";
"Brescia";"BRESCIA";"Lombardia";"Borgo San Giovanni";"2014";"2014-11-01T16:04:20Z";"312050243";"10.190681";"45.5431884999999";
"Brescia";"BRESCIA";"Lombardia";"Brescia";"2012";"2012-05-22T16:47:16Z";"1668862263";"10.2128011999999";"45.5323057";
"Brescia";"BRESCIA";"Lombardia";"Bresciadue";"2013";"2013-10-06T12:56:29Z";"2183569927";"10.2124713";"45.5263665";
"Brescia";"BRESCIA";"Lombardia";"Casazza";"2013";"2013-10-06T12:56:29Z";"2183569928";"10.2305174";"45.5756629999999";
"Brescia";"BRESCIA";"Lombardia";"Europa";"2013";"2013-10-06T12:56:29Z";"2183569929";"10.2347306";"45.5626254";
"Brescia";"BRESCIA";"Lombardia";"Lamarmora";"2013";"2013-10-06T12:56:29Z";"2183569930";"10.2128526999999";"45.5216677";
"Brescia";"BRESCIA";"Lombardia";"Marconi";"2013";"2013-10-06T12:56:29Z";"2183569931";"10.2249658";"45.5516346";
"Brescia";"BRESCIA";"Lombardia";"Mompiano";"2013";"2013-10-06T12:56:29Z";"2183569932";"10.2364137";"45.5675882";
"Brescia";"BRESCIA";"Lombardia";"Ospedale";"2013";"2013-10-06T12:56:30Z";"2183569933";"10.2329688999999";"45.5552526999999";
"Brescia";"BRESCIA";"Lombardia";"Poliambulanza";"2013";"2013-10-06T12:56:30Z";"1719862268";"10.2367065";"45.5173032";
"Brescia";"BRESCIA";"Lombardia";"Prealpino";"2013";"2013-10-06T12:56:30Z";"2183569934";"10.2290835999999";"45.5799396";
"Brescia";"BRESCIA";"Lombardia";"San Faustino";"2013";"2013-10-06T12:56:30Z";"2183569935";"10.2203295999999";"45.5448594";
"Brescia";"BRESCIA";"Lombardia";"Sanpolino";"2013";"2013-10-06T12:56:30Z";"1719862289";"10.2663011999999";"45.5163453999999";
"Brescia";"BRESCIA";"Lombardia";"San Polo";"2014";"2014-06-18T10:02:00Z";"1719862284";"10.25808";"45.5182602";
"Brescia";"BRESCIA";"Lombardia";"San Polo Parco";"2013";"2013-10-06T12:56:30Z";"1719862280";"10.2421621999999";"45.5170707999999";
"Brescia";"BRESCIA";"Lombardia";"Sant'Eufemia - Buffalora";"2013";"2013-10-06T12:56:30Z";"1719862292";"10.2801592";"45.5112434999999";
"Brescia";"BRESCIA";"Lombardia";"Stazione FS";"2013";"2013-10-06T12:56:30Z";"2183569936";"10.2153255";"45.5320346";
"Brescia";"BRESCIA";"Lombardia";"Vittoria";"2013";"2013-10-06T12:56:30Z";"2183569937";"10.2187036";"45.5387715";
"Brescia";"BRESCIA";"Lombardia";"Volta";"2013";"2013-10-06T12:56:30Z";"2183569938";"10.2254717";"45.5178862";
"Castegnato";"BRESCIA";"Lombardia";"Castegnato";"2013";"2013-10-07T13:20:54Z";"312051821";"10.1184261";"45.5661235999999";
"Cazzago San Martino";"BRESCIA";"Lombardia";"Cazzago San Martino";"2013";"2013-12-25T17:58:24Z";"2315624195";"10.0275965";"45.5764418999999";
"Ceto";"BRESCIA";"Lombardia";"Ceto - Cerveno";"2013";"2013-08-29T12:52:10Z";"312264787";"10.3389945999999";"45.9968562999999";
"Chiari";"BRESCIA";"Lombardia";"Chiari";"2015";"2015-10-13T06:03:37Z";"1670692482";"9.92647159999999";"45.5400558999999";
"Cividate Camuno";"BRESCIA";"Lombardia";"Cividate - Malegno";"2012";"2012-10-19T18:41:06Z";"312262775";"10.268418";"45.9435138999999";
"Coccaglio";"BRESCIA";"Lombardia";"Coccaglio";"2013";"2013-12-25T17:58:25Z";"295581269";"9.9774539";"45.5610543";
"Darfo Boario Terme";"BRESCIA";"Lombardia";"Boario Terme";"2012";"2012-02-18T10:53:21Z";"312260680";"10.1909356";"45.8920432";
"Darfo Boario Terme";"BRESCIA";"Lombardia";"Darfo Corna";"2015";"2015-10-08T12:14:44Z";"312260525";"10.1812258";"45.884286";
"Desenzano del Garda";"BRESCIA";"Lombardia";"Desenzano del Garda-Sirmione";"2015";"2015-02-01T10:10:58Z";"3324839623";"10.5363674";"45.4625910999999";
"Edolo";"BRESCIA";"Lombardia";"Edolo";"2014";"2014-02-19T10:51:06Z";"312618926";"10.3293341";"46.1769795";
"Iseo";"BRESCIA";"Lombardia";"Iseo";"2013";"2013-12-25T17:58:25Z";"312255974";"10.0501694";"45.6564979999999";
"Iseo";"BRESCIA";"Lombardia";"Iseo Porto";"2011";"2011-12-17T16:10:35Z";"784751781";"10.0488056";"45.6571387999999";
"Lonato";"BRESCIA";"Lombardia";"Lonato";"2015";"2015-02-01T10:22:33Z";"3324865280";"10.4867978";"45.4571224";
"Malonno";"BRESCIA";"Lombardia";"Forno Allione";"2015";"2015-10-02T11:14:39Z";"312271164";"10.3149";"46.0901319999999";
"Malonno";"BRESCIA";"Lombardia";"Malonno";"2015";"2015-09-10T20:54:21Z";"312271704";"10.3168109";"46.1187448";
"Manerbio";"BRESCIA";"Lombardia";"Manerbio";"2013";"2013-12-25T16:21:14Z";"628077246";"10.1323595";"45.357149";
"Marone";"BRESCIA";"Lombardia";"Marone-Zone";"2011";"2011-12-08T15:49:08Z";"312257640";"10.0933737";"45.7381851999999";
"Ospitaletto";"BRESCIA";"Lombardia";"Ospitaletto-Travagliato";"2013";"2013-10-07T13:20:55Z";"376983309";"10.0743422";"45.5460181999999";
"Paratico";"BRESCIA";"Lombardia";"Paratico-Sarnico";"2013";"2013-12-25T17:58:25Z";"886009356";"9.9547565";"45.6648137999999";
"Pian Camuno";"BRESCIA";"Lombardia";"Pian Camuno";"2015";"2015-10-02T22:47:37Z";"312259427";"10.1383721999999";"45.8399271999999";
"Pisogne";"BRESCIA";"Lombardia";"Pisogne";"2011";"2011-12-08T15:49:08Z";"312258569";"10.1055896";"45.806589";
"Remedello";"BRESCIA";"Lombardia";"Remedello Sopra";"2013";"2013-12-25T16:21:15Z";"628042576";"10.3792031";"45.2784845999999";
"Rovato";"BRESCIA";"Lombardia";"Rovato";"2014";"2014-06-17T15:40:16Z";"295581270";"10.0010049";"45.5521638999999";
"Rovato";"BRESCIA";"Lombardia";"Rovato Borgo";"2015";"2015-03-13T22:17:11Z";"3397495640";"10.0017423999999";"45.5527105999999";
"Rovato";"BRESCIA";"Lombardia";"Rovato Città";"2013";"2013-12-25T17:58:25Z";"2315624194";"10.0059618";"45.5658522";
"Sale Marasino";"BRESCIA";"Lombardia";"Sale Marasino";"2012";"2012-08-06T18:37:11Z";"312257155";"10.1116657";"45.7128088999999";
"San Zeno Naviglio";"BRESCIA";"Lombardia";"San Zeno-Folzano";"2013";"2013-12-25T16:21:15Z";"628079147";"10.2117125";"45.4915712999999";
"Sellero";"BRESCIA";"Lombardia";"Cedegolo";"2015";"2015-09-11T10:16:37Z";"312270790";"10.3500441";"46.0723306";
"Sulzano";"BRESCIA";"Lombardia";"Sulzano";"2011";"2011-12-08T15:38:36Z";"312256661";"10.1006277";"45.689497";
"Verolanuova";"BRESCIA";"Lombardia";"Verolanuova";"2013";"2013-12-25T16:21:15Z";"628077241";"10.0838487";"45.3249836999999";
"Visano";"BRESCIA";"Lombardia";"Visano";"2015";"2015-10-07T20:53:11Z";"725320864";"10.363208";"45.3152826";
"Piancogno";"BRESCIA";"Lombardia";"Cogno - Esine";"2011";"2011-12-08T15:59:15Z";"312261403";"10.2409219";"45.9292664999999";
"Piancogno";"BRESCIA";"Lombardia";"Piamborno";"2012";"2012-10-17T16:27:52Z";"312261031";"10.221442";"45.9158836";
"Albonese";"PAVIA";"Lombardia";"Albonese";"2014";"2014-05-20T16:51:53Z";"1699222373";"8.7146159";"45.2979671";
"Arena Po";"PAVIA";"Lombardia";"Arena Po";"2016";"2016-01-11T22:57:37Z";"654037131";"9.3603931";"45.0820267";
"Barbianello";"PAVIA";"Lombardia";"Barbianello";"2013";"2013-11-12T22:09:19Z";"643030424";"9.2055053";"45.0721884";
"Belgioioso";"PAVIA";"Lombardia";"Belgioioso";"2016";"2016-02-07T18:39:56Z";"677184221";"9.3169281";"45.1645139999999";
"Bressana Bottarone";"PAVIA";"Lombardia";"Bressana Bottarone";"2014";"2014-08-19T23:58:53Z";"622524400";"9.1106515";"45.0862932";
"Broni";"PAVIA";"Lombardia";"Broni";"2015";"2015-01-26T22:55:11Z";"627798152";"9.2588486";"45.0662911";
"Candia Lomellina";"PAVIA";"Lombardia";"Candia Lomellina";"2015";"2015-07-14T19:03:03Z";"3611590079";"8.5931616";"45.1799202999999";
"Chignolo Po";"PAVIA";"Lombardia";"Chignolo Po";"2015";"2015-09-15T21:30:17Z";"1450549003";"9.4941905";"45.1608996";
"Corteolona";"PAVIA";"Lombardia";"Corteolona";"2016";"2016-01-31T13:15:18Z";"3922614592";"9.3754962";"45.1596641";
"Ferrera Erbognone";"PAVIA";"Lombardia";"Ferrera Lomellina";"2014";"2014-11-01T15:21:27Z";"1640932568";"8.8627918";"45.1118461";
"Gambolo'";"PAVIA";"Lombardia";"Gambolò-Remondò";"2013";"2013-11-13T21:39:10Z";"1608294192";"8.7996611";"45.2352147";
"Garlasco";"PAVIA";"Lombardia";"Garlasco";"2015";"2015-04-24T21:15:08Z";"445835039";"8.9268803";"45.1989543999999";
"Giussago";"PAVIA";"Lombardia";"Certosa di Pavia";"2015";"2015-02-21T18:38:35Z";"471602952";"9.154335";"45.2564987";
"Lomello";"PAVIA";"Lombardia";"Lomello";"2016";"2016-02-21T16:27:00Z";"1914463960";"8.7991631";"45.1172992999999";
"Mede";"PAVIA";"Lombardia";"Mede";"2014";"2014-11-01T15:21:27Z";"1914463961";"8.742573";"45.0949912999999";
"Mortara";"PAVIA";"Lombardia";"Mortara";"2013";"2013-11-13T21:52:37Z";"434297557";"8.7318336";"45.2521569";
"Nicorvo";"PAVIA";"Lombardia";"Nicorvo";"2014";"2014-12-07T11:23:18Z";"1642990055";"8.6712386";"45.275452";
"Olevano di Lomellina";"PAVIA";"Lombardia";"Olevano";"2013";"2013-11-13T21:52:37Z";"433575891";"8.7118622";"45.2120917";
"Parona";"PAVIA";"Lombardia";"Parona Lomellina";"2015";"2015-05-07T08:46:21Z";"1972333907";"8.7779142";"45.2792559";
"Pavia";"PAVIA";"Lombardia";"Motta San Damiano";"2016";"2016-02-10T17:41:05Z";"1450534556";"9.2199828";"45.1782753";
"Pavia";"PAVIA";"Lombardia";"Pavia";"2015";"2015-10-09T12:03:52Z";"211030020";"9.144643";"45.1887346999999";
"Pinarolo Po";"PAVIA";"Lombardia";"Pinarolo Po";"2013";"2013-11-13T21:52:38Z";"643030333";"9.1702786";"45.0734118";
"Pizzale";"PAVIA";"Lombardia";"Pizzale-Lungavilla";"2015";"2015-07-25T15:44:20Z";"2216153912";"9.0689894";"45.0498146999999";
"Robbio";"PAVIA";"Lombardia";"Robbio";"2012";"2012-09-28T09:51:13Z";"636866698";"8.5970645";"45.2935517";
"San Martino Siccomario";"PAVIA";"Lombardia";"San Martino Siccomario-Cava Manara";"2013";"2013-11-13T21:52:38Z";"1508823242";"9.1153387";"45.1449316";
"Sannazzaro de' Burgondi";"PAVIA";"Lombardia";"Sannazzaro de' Burgondi";"2014";"2014-11-01T15:21:28Z";"1914463967";"8.90510639999999";"45.1055682";
"Santa Cristina e Bissone";"PAVIA";"Lombardia";"Santa Cristina e Bissone";"2013";"2013-11-13T21:52:38Z";"1914431424";"9.4010896";"45.1604371";
"Sartirana Lomellina";"PAVIA";"Lombardia";"Sartirana";"2013";"2013-11-13T21:52:38Z";"377076981";"8.6702004";"45.1117127999999";
"Sommo";"PAVIA";"Lombardia";"Stazione Cava Carbonara";"2013";"2013-11-12T22:13:01Z";"1625375585";"9.0714445";"45.147022";
"Stradella";"PAVIA";"Lombardia";"Stradella";"2013";"2013-11-13T21:56:29Z";"627798408";"9.3008556";"45.0794520999999";
"Torre Beretti e Castellaro";"PAVIA";"Lombardia";"Torreberetti";"2015";"2015-10-18T20:04:26Z";"3791925628";"8.66056189999999";"45.0604749";
"Valle Lomellina";"PAVIA";"Lombardia";"Valle Lomellina";"2013";"2013-11-13T21:56:29Z";"433575885";"8.6861266";"45.1510782";
"Vigevano";"PAVIA";"Lombardia";"Vigevano";"2013";"2013-11-13T21:56:29Z";"377077174";"8.8620394";"45.3127094999999";
"Voghera";"PAVIA";"Lombardia";"";"2012";"2012-10-28T22:22:36Z";"1987739089";"9.0088916";"44.9976958999999";
"Voghera";"PAVIA";"Lombardia";"Voghera";"2015";"2015-01-26T21:24:14Z";"197428492";"9.00872629999999";"44.9978634";
"Zinasco";"PAVIA";"Lombardia";"Zinasco Nuovo";"2015";"2015-01-03T20:55:20Z";"1914463970";"8.99976189999999";"45.1245161";
"Acquanegra Cremonese";"CREMONA";"Lombardia";"Acquanegra Cremonese";"2015";"2015-10-26T09:30:44Z";"3400089437";"9.8886617";"45.1720284";
"Capralba";"CREMONA";"Lombardia";"Capralba";"2013";"2013-12-25T20:28:50Z";"451753229";"9.6399545";"45.4435174999999";
"Casalbuttano ed Uniti";"CREMONA";"Lombardia";"Casalbuttano";"2013";"2013-12-25T16:21:14Z";"451752911";"9.9623509";"45.2554145";
"Casaletto Vaprio";"CREMONA";"Lombardia";"Casaletto Vaprio";"2013";"2013-12-25T20:28:50Z";"451794732";"9.6317619";"45.4086664";
"Casalmaggiore";"CREMONA";"Lombardia";"Casalmaggiore";"2015";"2015-06-15T15:16:21Z";"341964969";"10.4250843999999";"44.9930765";
"Castelleone";"CREMONA";"Lombardia";"Castelleone";"2013";"2013-12-25T20:28:50Z";"451753082";"9.7677689";"45.3018446999999";
"Castelverde";"CREMONA";"Lombardia";"P.M. Km 5+420";"2015";"2015-03-11T23:15:40Z";"842214516";"10.0339452999999";"45.1825011999999";
"Crema";"CREMONA";"Lombardia";"Crema";"2013";"2013-12-25T20:28:50Z";"451752998";"9.6942011";"45.3668722";
"Cremona";"CREMONA";"Lombardia";"Cremona";"2015";"2015-12-27T22:42:03Z";"3793693209";"10.0180903";"45.1431528";
"Malagnino";"CREMONA";"Lombardia";"Villetta Malagnino";"2013";"2013-12-25T20:28:51Z";"2594273981";"10.1119621";"45.1368991";
"Olmeneta";"CREMONA";"Lombardia";"Olmeneta";"2013";"2013-12-25T16:49:12Z";"2594025902";"10.0318857";"45.2312292";
"Pieve San Giacomo";"CREMONA";"Lombardia";"Gazzo-Pieve San Giacomo";"2013";"2013-12-25T20:28:50Z";"1958593418";"10.1899522";"45.1370264999999";
"Pizzighettone";"CREMONA";"Lombardia";"Pizzighettone";"2013";"2013-12-29T16:52:55Z";"417285612";"9.7771662";"45.1816949999999";
"Robecco d'Oglio";"CREMONA";"Lombardia";"Robecco-Pontevico";"2013";"2013-12-25T16:21:15Z";"628077239";"10.078638";"45.2662478";
"San Giovanni in Croce";"CREMONA";"Lombardia";"San Giovanni in Croce";"2015";"2015-03-14T14:57:35Z";"2600692349";"10.3776138";"45.0750669999999";
"Sesto ed Uniti";"CREMONA";"Lombardia";"Cava Tigozzi";"2015";"2015-11-01T11:03:35Z";"1385703703";"9.9558642";"45.1568147999999";
"Soresina";"CREMONA";"Lombardia";"Soresina";"2015";"2015-03-15T19:31:49Z";"3400523723";"9.8566417";"45.2831233";
"Torre de' Picenardi";"CREMONA";"Lombardia";"Torre de' Picenardi";"2013";"2013-12-25T20:28:51Z";"838710450";"10.2869058";"45.1372508999999";
"Asola";"MANTOVA";"Lombardia";"Asola";"2013";"2013-12-25T16:21:14Z";"628056779";"10.4023442999999";"45.2204442";
"Bigarello";"MANTOVA";"Lombardia";"Gazzo di Bigarello";"2011";"2011-12-08T01:00:36Z";"966725906";"10.8939945";"45.1766714999999";
"Carbonara di Po";"MANTOVA";"Lombardia";"Vallazza-Carbonara Po";"2012";"2012-09-04T17:17:26Z";"1898640176";"11.2209518999999";"44.9987061";
"Castel d'Ario";"MANTOVA";"Lombardia";"Castel d'Ario";"2011";"2011-12-08T01:00:34Z";"966725921";"10.9753358";"45.1834069";
"Castellucchio";"MANTOVA";"Lombardia";"Castellucchio";"2015";"2015-10-07T20:53:11Z";"1598946767";"10.6475513999999";"45.1442143";
"Felonica";"MANTOVA";"Lombardia";"Felonica Po";"2014";"2014-09-03T05:50:10Z";"1898635762";"11.3383699";"44.9716997";
"Felonica";"MANTOVA";"Lombardia";"Felonica Po";"2014";"2014-09-03T05:50:10Z";"1898635762";"11.3383699";"44.9716997";
"Gonzaga";"MANTOVA";"Lombardia";"Gonzaga-Reggiolo";"2015";"2015-03-25T13:50:42Z";"354554988";"10.8156473";"44.9392554";
"Gonzaga";"MANTOVA";"Lombardia";"Gonzaga-Reggiolo";"2015";"2015-03-25T13:50:42Z";"354554988";"10.8156473";"44.9392554";
"Magnacavallo";"MANTOVA";"Lombardia";"Magnacavallo";"2013";"2013-01-21T11:26:45Z";"1898642406";"11.1823789999999";"45.0022538999999";
"Mantova";"MANTOVA";"Lombardia";"Mantova";"2012";"2012-09-09T09:37:41Z";"469685674";"10.7832571";"45.1587298";
"Mantova";"MANTOVA";"Lombardia";"Mantova Frassine";"2014";"2014-05-18T19:31:39Z";"966940662";"10.8310984";"45.1505234999999";
"Marcaria";"MANTOVA";"Lombardia";"Marcaria";"2015";"2015-10-14T16:28:30Z";"3786300941";"10.5337049999999";"45.1244567999999";
"Marcaria";"MANTOVA";"Lombardia";"San Michele in Bosco";"2015";"2015-12-27T22:54:17Z";"1639241025";"10.5734609";"45.1224828";
"Pegognaga";"MANTOVA";"Lombardia";"Pegognaga";"2015";"2015-02-21T16:22:41Z";"2451451190";"10.8537176";"45.0004459";
"Poggio Rusco";"MANTOVA";"Lombardia";"Poggio Rusco";"2013";"2013-12-29T18:40:32Z";"1882504752";"11.1243927";"44.9818392";
"Quistello";"MANTOVA";"Lombardia";"Quistello";"2012";"2012-09-04T17:22:12Z";"1898647449";"10.9821130999999";"45.0022451999999";
"Quistello";"MANTOVA";"Lombardia";"San Rocco Mantovano";"2012";"2012-09-04T17:21:16Z";"1898646239";"11.0174839";"44.9970532999999";
"Roverbella";"MANTOVA";"Lombardia";"Roverbella";"2011";"2011-06-01T23:31:45Z";"338385439";"10.7968224";"45.2526215999999";
"Roverbella";"MANTOVA";"Lombardia";"Roverbella";"2011";"2011-06-01T23:31:45Z";"338385439";"10.7968224";"45.2526215999999";
"San Benedetto Po";"MANTOVA";"Lombardia";"San Benedetto Po";"2012";"2012-09-04T17:23:04Z";"317558943";"10.9265057999999";"45.0361701";
"Schivenoglia";"MANTOVA";"Lombardia";"Schivenoglia";"2013";"2013-12-29T18:40:32Z";"1898644883";"11.075339";"44.9913235";
"Sermide";"MANTOVA";"Lombardia";"Sermide";"2012";"2012-09-04T17:15:56Z";"1898639274";"11.2895497";"44.9960223";
"Suzzara";"MANTOVA";"Lombardia";"Suzzara";"2013";"2013-12-25T17:08:53Z";"1898650551";"10.7560322999999";"44.9944594999999";
"BORGO VIRGILIO";"MANTOVA";"Lombardia";"Romanore";"2015";"2015-03-25T13:45:12Z";"2459581042";"10.7510984999999";"45.0638719";
"Bolzano";"BOLZANO";"Trentino-Alto Adige";"Bolzano/Bozen";"2014";"2014-11-17T20:45:54Z";"1455004982";"11.3584026999999";"46.4966084";
"Bolzano";"BOLZANO";"Trentino-Alto Adige";"Ponte d'Adige - Sigmundskron";"2015";"2015-12-13T12:27:47Z";"1455273175";"11.2978313";"46.485711";
"Brennero";"BOLZANO";"Trentino-Alto Adige";"Brennero / Brenner";"2015";"2015-05-04T16:08:14Z";"941776925";"11.5055359999999";"47.0024092";
"Brennero";"BOLZANO";"Trentino-Alto Adige";"Gossensass - Colle Isarco";"2016";"2016-02-22T17:57:12Z";"938875480";"11.4413598";"46.9381052999999";
"Bressanone";"BOLZANO";"Trentino-Alto Adige";"Bressanone - Brixen";"2015";"2015-11-30T23:23:20Z";"1455005001";"11.6500392";"46.7100411999999";
"Bronzolo";"BOLZANO";"Trentino-Alto Adige";"Bronzolo / Branzoll";"2014";"2014-02-12T20:54:04Z";"1455004993";"11.3161837";"46.4050433999999";
"Caldaro sulla Strada del Vino";"BOLZANO";"Trentino-Alto Adige";"Kaltern, St. Anton - Caldaro, S.Antonio";"2015";"2015-08-08T10:19:12Z";"387269479";"11.2346571999999";"46.40802";
"Caldaro sulla Strada del Vino";"BOLZANO";"Trentino-Alto Adige";"Passo della Mendola - Mendelpass";"2015";"2015-08-08T10:19:12Z";"304204094";"11.2090169999999";"46.4154448";
"Campo di Trens";"BOLZANO";"Trentino-Alto Adige";"Campo di Trens - Freienfeld";"2015";"2015-11-30T23:23:20Z";"462285414";"11.4883722";"46.8690306";
"Castelbello-Ciardes";"BOLZANO";"Trentino-Alto Adige";"Kastelbell - Castelbello";"2015";"2015-12-13T13:45:35Z";"695845720";"10.8979414";"46.626871";
"Castelbello-Ciardes";"BOLZANO";"Trentino-Alto Adige";"Tschars - Ciardes";"2015";"2015-12-13T13:45:35Z";"560116319";"10.9405948";"46.6352138";
"Chiusa";"BOLZANO";"Trentino-Alto Adige";"Klausen - Chiusa";"2015";"2015-10-06T17:56:49Z";"1455005006";"11.5725738";"46.6427301";
"Dobbiaco";"BOLZANO";"Trentino-Alto Adige";"Höhlenstein / Landro";"2014";"2014-09-13T11:33:50Z";"3074093443";"12.2321791";"46.6380082";
"Dobbiaco";"BOLZANO";"Trentino-Alto Adige";"Schluderbach / Carbonin ? Misurina";"2014";"2014-09-13T11:33:50Z";"3072378854";"12.2199601";"46.6179378";
"Dobbiaco";"BOLZANO";"Trentino-Alto Adige";"Toblach - Dobbiaco";"2015";"2015-12-11T20:58:04Z";"251219270";"12.2255261";"46.7249741999999";
"Fortezza";"BOLZANO";"Trentino-Alto Adige";"Franzensfeste - Fortezza";"2016";"2016-01-28T14:44:37Z";"3973898760";"11.6102886";"46.7888627";
"Gargazzone";"BOLZANO";"Trentino-Alto Adige";"Gargazon - Gargazzone";"2015";"2015-12-13T12:34:08Z";"1455273166";"11.1989769";"46.5748958";
"Laces";"BOLZANO";"Trentino-Alto Adige";"Goldrain - Coldrano";"2015";"2015-12-13T13:45:36Z";"1456192829";"10.8218920999999";"46.6189042";
"Laces";"BOLZANO";"Trentino-Alto Adige";"Latsch - Laces";"2015";"2015-12-13T13:45:35Z";"287416955";"10.8607561";"46.6196910999999";
"Lagundo";"BOLZANO";"Trentino-Alto Adige";"Algund - Lagundo";"2015";"2015-12-13T13:18:57Z";"1456329932";"11.131935";"46.6789801999999";
"Laion";"BOLZANO";"Trentino-Alto Adige";"Waidbruck - Ponte Gardena";"2015";"2015-12-28T16:45:30Z";"1455005014";"11.5328028";"46.6011767";
"Laives";"BOLZANO";"Trentino-Alto Adige";"Laives - Leifers";"2015";"2015-10-26T18:27:31Z";"1455005010";"11.3237848";"46.4343429999999";
"Lasa";"BOLZANO";"Trentino-Alto Adige";"Eyrs - Oris";"2015";"2015-12-13T14:26:54Z";"1456329933";"10.6461398";"46.626755";
"Lasa";"BOLZANO";"Trentino-Alto Adige";"Laas - Lasa";"2015";"2015-12-13T14:26:54Z";"1456329936";"10.6955247";"46.6183425999999";
"Magre' sulla Strada del Vino";"BOLZANO";"Trentino-Alto Adige";"Margreid-Kurtatsch / Magrè-Cortaccia";"2015";"2015-02-22T12:29:32Z";"1764381717";"11.2325123";"46.2880905999999";
"Malles Venosta";"BOLZANO";"Trentino-Alto Adige";"Mals - Malles Venosta";"2015";"2015-12-13T14:26:54Z";"288908601";"10.5487532";"46.6842419";
"Marlengo";"BOLZANO";"Trentino-Alto Adige";"Marling - Marlengo";"2015";"2015-12-13T13:18:57Z";"686665733";"11.1386172";"46.6641657999999";
"Merano";"BOLZANO";"Trentino-Alto Adige";"Meran - Merano";"2015";"2015-12-13T12:50:23Z";"1455273173";"11.149171";"46.6731973999999";
"Merano";"BOLZANO";"Trentino-Alto Adige";"Meran-Untermais - Merano-Maia Bassa";"2015";"2015-12-13T12:50:23Z";"1455273186";"11.1481729";"46.6563463";
"Monguelfo";"BOLZANO";"Trentino-Alto Adige";"";"2015";"2015-08-18T19:13:48Z";"3157175269";"12.1076234";"46.7528367999999";
"Monguelfo";"BOLZANO";"Trentino-Alto Adige";"Welsberg-Gsies - Monguelfo-Valle di Casies";"2015";"2015-12-11T20:54:10Z";"1456081050";"12.1079495";"46.7526093";
"Naturno";"BOLZANO";"Trentino-Alto Adige";"Naturns - Naturno";"2015";"2015-12-13T13:45:35Z";"1456192839";"11.0042694";"46.6450169";
"Naturno";"BOLZANO";"Trentino-Alto Adige";"Staben - Stava";"2015";"2015-12-13T13:45:35Z";"1456192851";"10.9658067999999";"46.6452243";
"Ora";"BOLZANO";"Trentino-Alto Adige";"Auer / Ora";"2015";"2015-05-13T17:37:36Z";"1764381711";"11.2971462";"46.360956";
"Parcines";"BOLZANO";"Trentino-Alto Adige";"Rabland - Rablà";"2015";"2015-12-13T13:18:57Z";"1456192849";"11.0688511";"46.6656813999999";
"Parcines";"BOLZANO";"Trentino-Alto Adige";"Töll - Tel";"2015";"2015-12-13T13:18:57Z";"2056303384";"11.0816272";"46.6727757";
"Plaus";"BOLZANO";"Trentino-Alto Adige";"Plaus";"2015";"2015-12-13T13:18:56Z";"1456192841";"11.0410491";"46.6583783";
"Postal";"BOLZANO";"Trentino-Alto Adige";"Lana-Burgstall - Lana-Postal";"2015";"2015-12-13T12:50:23Z";"1455273167";"11.1826095";"46.6078993";
"Prato allo Stelvio";"BOLZANO";"Trentino-Alto Adige";"Spondinig - Spondigna";"2015";"2015-12-13T14:26:54Z";"1456329946";"10.6110083";"46.6343383999999";
"Renon";"BOLZANO";"Trentino-Alto Adige";"Klobenstein - Collalbo";"2013";"2013-10-16T17:12:04Z";"1752351137";"11.4593718";"46.5394397999999";
"Renon";"BOLZANO";"Trentino-Alto Adige";"Lichtenstern - Stella";"2013";"2013-04-24T09:56:18Z";"1752324406";"11.4353172";"46.528972";
"Renon";"BOLZANO";"Trentino-Alto Adige";"Oberbozen - Soprabolzano";"2014";"2014-06-13T10:49:06Z";"2914228768";"11.4058343";"46.5280624";
"Salorno";"BOLZANO";"Trentino-Alto Adige";"Salurn / Salorno";"2013";"2013-10-12T14:02:16Z";"1764381733";"11.2028520999999";"46.2457313";
"San Candido";"BOLZANO";"Trentino-Alto Adige";"Innichen - San Candido";"2015";"2015-12-11T21:01:56Z";"3020749732";"12.2720945";"46.7327385999999";
"Silandro";"BOLZANO";"Trentino-Alto Adige";"Schlanders - Silandro";"2015";"2015-12-13T13:45:36Z";"1456329943";"10.7665514";"46.6260698999999";
"Sluderno";"BOLZANO";"Trentino-Alto Adige";"Schluderns-Glurns - Sluderno-Glorenza";"2015";"2015-12-13T14:26:54Z";"94907802";"10.581791";"46.6649114";
"Terlano";"BOLZANO";"Trentino-Alto Adige";"Terlan - Terlano";"2015";"2015-12-13T12:34:09Z";"1455273183";"11.2487328";"46.5284849";
"Terlano";"BOLZANO";"Trentino-Alto Adige";"Vilpian-Nals - Vilpiano-Nalles";"2015";"2015-12-13T12:34:08Z";"1455273188";"11.2203918999999";"46.5542349999999";
"Termeno sulla Strada del Vino";"BOLZANO";"Trentino-Alto Adige";"Neumarkt-Tramin / Egna-Termeno";"2015";"2015-05-13T17:37:36Z";"1764381721";"11.2573652";"46.3194458999999";
"Valdaora";"BOLZANO";"Trentino-Alto Adige";"Olang-Antholz - Valdaora-Anterselva";"2015";"2015-12-11T20:50:37Z";"1456081047";"12.0302526";"46.7672341";
"Val di Vizze";"BOLZANO";"Trentino-Alto Adige";"Sterzing-Pfitsch - Vipiteno-Val di Vizze";"2015";"2015-12-11T20:15:57Z";"508692744";"11.4402567";"46.8957178";
"Villabassa";"BOLZANO";"Trentino-Alto Adige";"Niederdorf-Prags - Villabassa-Braies";"2015";"2015-12-11T20:57:01Z";"1456081045";"12.1670693";"46.7364704";
"Ala";"TRENTO";"Trentino-Alto Adige";"Ala";"2016";"2016-02-22T13:38:10Z";"2518597829";"10.9963774";"45.7591129999999";
"Ala";"TRENTO";"Trentino-Alto Adige";"Serravalle all'Adige";"2014";"2014-10-27T08:24:55Z";"1764381734";"11.015147";"45.8082179999999";
"Avio";"TRENTO";"Trentino-Alto Adige";"Avio";"2016";"2016-02-22T13:38:10Z";"1764381712";"10.9560297";"45.7337381999999";
"Avio";"TRENTO";"Trentino-Alto Adige";"Borghetto";"2015";"2015-05-11T21:38:13Z";"1764381713";"10.9271072";"45.6968931999999";
"Borgo Valsugana";"TRENTO";"Trentino-Alto Adige";"Borgo Valsugana Centro";"2013";"2013-11-04T08:53:28Z";"959514411";"11.4539692";"46.0511935999999";
"Borgo Valsugana";"TRENTO";"Trentino-Alto Adige";"Borgo Valsugana Est";"2013";"2013-11-04T08:53:29Z";"959514403";"11.4639676";"46.0522291999999";
"Calceranica al Lago";"TRENTO";"Trentino-Alto Adige";"Calceranica";"2013";"2013-11-04T08:53:28Z";"330400880";"11.2407771";"46.0074137";
"Caldes";"TRENTO";"Trentino-Alto Adige";"Caldes";"2013";"2013-04-15T23:05:45Z";"335608027";"10.9455325";"46.3663183999999";
"Caldonazzo";"TRENTO";"Trentino-Alto Adige";"Caldonazzo";"2013";"2013-11-04T08:53:28Z";"330400817";"11.2645404";"45.9975451999999";
"Cles";"TRENTO";"Trentino-Alto Adige";"Cles";"2013";"2013-10-30T10:01:03Z";"415948282";"11.0390716";"46.3643982999999";
"Grigno";"TRENTO";"Trentino-Alto Adige";"Grigno";"2014";"2014-03-20T21:28:59Z";"761090461";"11.6248204";"46.0150622";
"Grigno";"TRENTO";"Trentino-Alto Adige";"Tezze di Grigno";"2013";"2013-11-04T08:53:29Z";"393163669";"11.6697384";"45.9904646999999";
"Lavis";"TRENTO";"Trentino-Alto Adige";"Lavis";"2013";"2013-10-30T10:01:04Z";"311380574";"11.1087121";"46.1382569";
"Lavis";"TRENTO";"Trentino-Alto Adige";"Nave San Felice";"2013";"2013-10-25T23:29:41Z";"311380528";"11.1137508999999";"46.1678799";
"Lavis";"TRENTO";"Trentino-Alto Adige";"Zambana";"2013";"2013-10-25T23:29:40Z";"311380553";"11.1006023";"46.1509697999999";
"Levico Terme";"TRENTO";"Trentino-Alto Adige";"Levico Terme";"2013";"2013-11-04T08:53:28Z";"598464304";"11.3049373";"46.0057310999999";
"Male'";"TRENTO";"Trentino-Alto Adige";"Male";"2013";"2013-10-30T10:01:03Z";"335595260";"10.9172676";"46.353622";
"Mezzocorona";"TRENTO";"Trentino-Alto Adige";"Mezzocorona";"2012";"2012-09-03T17:22:04Z";"1764381719";"11.1284209999999";"46.2072325";
"Mezzocorona";"TRENTO";"Trentino-Alto Adige";"Mezzocorona";"2013";"2013-10-25T23:29:41Z";"860321086";"11.1271980999999";"46.2063756";
